id,station_name,street_address,city,province,latitude,longitude,ev_network,ev_dc_fast_count,ev_level2_evse_num,ev_connector_types,groups_with_access_code,access_days_time,open_date
129454,Essex - Sports Complex,60 Fairview Ave W.,Essex,Ontario,42.167112,-82.816715,FLO,2,0.0,CHADEMO J1772COMBO,Public,24 hours daily,2019-07-17
83915,BVD Petroleum - Comber - Tesla Supercharger,7018 Industrial Drive,Comber,Ontario,42.239116,-82.550227,Tesla,8,0.0,TESLA,Public,24 hours daily; for Tesla use only,2015-04-01
83263,Reaume Chevrolet Buick GMC,500 Front Rd,Windsor,Ontario,42.241722,-83.102857,Non-Networked,1,1.0,J1772 J1772COMBO,Public,24 hours daily,2013-01-15
156672,Hydro One Inc,5001 Concession Rd 8,Old Castle,Ontario,42.24333,-82.94717,Non-Networked,2,0.0,CHADEMO J1772COMBO,PLANNED - not yet accessible (Public),Unknown,
210228,Shell Canada Ltd,5501 Ojibway Pky,Windsor,Ontario,42.26009628,-83.08496642,Non-Networked,2,0.0,Unknown,PLANNED - not yet accessible (Public),Unknown,
83443,Lanoue Chevrolet,75 Mill St W,Tillbury,Ontario,42.262758,-82.446151,Non-Networked,1,1.0,J1772 J1772COMBO,Public,Dealership business hours,2013-01-15
163834,Tilbury,37 Mill St E,Tilbury,Ontario,42.2646,-82.42569,Electrify Canada,4,0.0,CHADEMO J1772COMBO,Public,24 hours daily,2020-07-03
165189,Ivy - Windsor,3155 Howard Ave,Windsor,Ontario,42.274246,-83.006671,IVY,2,0.0,CHADEMO J1772COMBO,Public,24 hours daily; Also accepts in-app payment,2020-08-10
220731,Ivy - ONroute Tilbury South,62 Hwy 401 Eastbound,Chatham-Kent,Ontario,42.27456621,-82.4002133,IVY,2,0.0,CHADEMO J1772COMBO,Public - Credit card at all times,24 hours daily,2022-05-31
220732,Ivy - ONroute Tilbury North,58 Hwy 401 Westbound,Tilbury,Ontario,42.27661152,-82.40104492,IVY,2,0.0,CHADEMO J1772COMBO,Public - Credit card at all times,24 hours daily,2022-05-31
158075,Real Canadian Superstore,2430 Dougall St,Windsor,Ontario,42.2890479,-83.0222068,Non-Networked,1,0.0,CHADEMO J1772COMBO,PLANNED - not yet accessible (Public),Unknown,
157847,Ontario Charging Network LP Canadian Tire,2650 Tecumseh Rd W,Windsor,Ontario,42.29218,-83.05804,Non-Networked,2,0.0,CHADEMO J1772COMBO,PLANNED - not yet accessible (Public),Unknown,
180518,OVERSEAS BMW FAST CHARGER 01,9425 Tecumseh Rd E,Windsor,Ontario,42.313713,-82.924253,ChargePoint Network,1,0.0,J1772COMBO,Public,24 hours daily,2021-01-27
83124,Gus Revenberg Chevrolet Buick GMC,10150 Tecumseh Rd E,Tecumseh,Ontario,42.314019,-82.916044,Non-Networked,1,0.0,J1772COMBO,Public - Call ahead,Dealership business hours,2013-08-15
156678,Hydro One Inc,9386 Pinehurst Line,Chatham,Ontario,42.388179,-82.096361,Non-Networked,3,0.0,CHADEMO J1772COMBO,PLANNED - not yet accessible (Public),Unknown,
83126,Heuvelmans Chevrolet,755 Grand Ave W,Chatham,Ontario,42.395337,-82.212924,Non-Networked,1,1.0,J1772 J1772COMBO,Private,24 hours daily,2011-09-15
85127,Tim Horton's,33 3rd St,Chatham,Ontario,42.40411,-82.189163,Non-Networked,1,0.0,CHADEMO J1772COMBO,Public,24 hours daily,2017-05-15
197854,Wallaceburg,74 McNaughton Ave,Wallaceburg,Ontario,42.586657,-82.38482,FLO,1,1.0,CHADEMO J1772 J1772COMBO,Public,24 hours daily,2021-10-16
88072,Transit: 75002 Wallaceburg,541 James Street,Wallaceburg,Ontario,42.593662,-82.384914,EV Connect,1,0.0,CHADEMO J1772COMBO,Public,Unknown,2017-07-01
207860,Ivy - ONroute Dutton,27585 Highway 401 Eastbound,Dutton,Ontario,42.64440095,-81.56047577,IVY,2,0.0,CHADEMO J1772COMBO,Public - Credit card at all times,24 hours daily,2022-03-07
207861,Ivy - ONroute West Lorne,290 ON-401,Dutton,Ontario,42.6495876,-81.55691932,IVY,3,0.0,CHADEMO J1772COMBO,Public - Credit card at all times,24 hours daily,2022-03-07
94479,Scotiabank,407 Main St,Port Dover,Ontario,42.787499,-80.205286,Non-Networked,1,0.0,CHADEMO J1772COMBO,Public,24 hours daily,2017-08-01
94483,Scotiabank,4 Norfolk St N,Simcoe,Ontario,42.837253,-80.304252,Non-Networked,1,0.0,CHADEMO J1772COMBO,Public,24 hours daily,2017-08-01
231067,Transit: 92452 Simcoe,54 Norfolk Street North,Simcoe,Ontario,42.838473,-80.304814,EV Connect,1,0.0,CHADEMO J1772COMBO,Public,Unknown,2022-09-30
85226,Tim Horton's,401 Simcoe St,Tillsonburg,Ontario,42.853153,-80.689851,Non-Networked,1,0.0,CHADEMO J1772COMBO,Public,24 hours daily,2017-09-01
85227,Tim Horton's,560 Broadway St,Tillsonburg,Ontario,42.87722,-80.744461,Non-Networked,1,0.0,CHADEMO J1772COMBO,Public - Credit card at all times,24 hours daily,2017-09-01
94476,Victoria Hall,411 Greenfield St,Petrolia,Ontario,42.881106,-82.146763,Non-Networked,1,0.0,CHADEMO J1772COMBO,Public,24 hours daily,2018-05-15
85212,Tim Horton's,429 Main St W,Port Colborne,Ontario,42.899117,-79.258793,Non-Networked,1,0.0,CHADEMO J1772COMBO,Public,24 hours daily,2017-05-15
85138,Tim Horton's,1167 Garrison Rd,Fort Erie,Ontario,42.904444,-78.958962,Non-Networked,1,0.0,CHADEMO J1772COMBO,Public,24 hours daily,2017-05-15
204690,Fort Erie,240 Garrison Rd,Fort Erie,Ontario,42.904712,-78.924098,FLO,1,1.0,CHADEMO J1772 J1772COMBO,Public,24 hours daily,2022-01-12
157891,Super Store Mall - Tesla Supercharger,4350 Wellington Road South,London,Ontario,42.917334,-81.208558,Tesla,12,0.0,TESLA,Public,24 hours daily; for Tesla use only,2020-05-01
156676,Ivy - London,4380 Wellington Rd S,London,Ontario,42.91773137,-81.20899009,IVY,3,0.0,CHADEMO J1772COMBO,Public - Credit card at all times,24 hours daily; Also accepts in-app payment,2020-06-26
210208,Shell Canada Ltd,1390 Wellington Rd,London,Ontario,42.92579161,-81.21543277,Non-Networked,2,0.0,Unknown,PLANNED - not yet accessible (Public),Unknown,
189158,London South ( Canadian Tire),1125 Wellington Road,London,Ontario,42.93072,-81.22085,Electrify Canada,4,0.0,CHADEMO J1772COMBO,Public,24 hours daily,2021-05-04
129464,FLO - Canadian Tire - London South,1115 Wellington Road South,London,Ontario,42.9308856,-81.221,FLO,1,2.0,CHADEMO J1772 J1772COMBO,Public,24 hours daily,2019-07-17
84378,Ray Cullen Chevrolet,730 Wharncliffe Rd S,London,Ontario,42.947677,-81.258042,Non-Networked,1,0.0,J1772COMBO,Public - Call ahead,24 hours daily,2015-05-16
85126,Tim Horton's,51 Talbot St E,Cayuga,Ontario,42.951401,-79.849479,Non-Networked,1,0.0,CHADEMO J1772COMBO,Public,24 hours daily,2017-05-15
83230,Petro-Canada,3305 Dorchester Rd,Dorchester,Ontario,42.95611,-81.061756,PETROCAN,2,1.0,CHADEMO J1772 J1772COMBO,Public,24 hours daily,2015-09-15
83897,Audi London,481 Wharncliffe Rd S,London,Ontario,42.9581,-81.2616,Non-Networked,1,0.0,CHADEMO,Public,"8am-5PM M-F, Audi clients only",2015-11-15
158074,Real Canadian Superstore,626 Victoria St,Strathroy,Ontario,42.9673138,-81.6339047,Non-Networked,1,0.0,CHADEMO J1772COMBO,PLANNED - not yet accessible (Public),Unknown,
209351,Hydro One Inc,600 Murphy Rd,Sarnia,Ontario,42.97751467,-82.36554824,Non-Networked,2,0.0,Unknown,PLANNED - not yet accessible (Public),Unknown,
227725,Mobil,600 Murphy Rd,Sarnia,Ontario,42.97904529,-82.36480385,IVY,4,0.0,CHADEMO J1772COMBO,Public - Credit card at all times,24 hours daily,2022-09-13
84926,Finch Chevrolet Cadillac Buick GMC,640 Wonderland Rd N,London,Ontario,42.981413,-81.291468,Non-Networked,1,2.0,J1772,Private,Dealership business hours,2012-06-15
185160,Sarnia,1330 EXMOUTHST,Sarnia,Ontario,42.98525,-82.35662,Electrify Canada,4,0.0,CHADEMO J1772COMBO,Public,24 hours daily,2021-02-18
156679,Hydro One Inc,750 Front St,Sarnia,Ontario,42.98966,-82.40419,Non-Networked,3,0.0,CHADEMO J1772COMBO,PLANNED - not yet accessible (Public),Unknown,
169659,ChargeLab - Bridge St,2 Bridge St,Point Edward,Ontario,42.9923795,-82.4106227,CHARGELAB,1,0.0,CHADEMO J1772COMBO,Public - Credit card at all times,24 hours daily,2019-09-09
156677,Hydro One Inc,28895 Centre Rd,Strathroy,Ontario,43.0046196,-81.699951,Non-Networked,2,0.0,CHADEMO J1772COMBO,PLANNED - not yet accessible (Public),Unknown,
85216,Tim Horton's,1399 Colborne Rd,Sarnia,Ontario,43.005069,-82.388348,Non-Networked,1,0.0,CHADEMO J1772COMBO,Public,24 hours daily,2017-07-15
189157,Welland (Canadian Tire),158 Primeway Drive,Welland,Ontario,43.0153,-79.22866,Electrify Canada,4,0.0,CHADEMO J1772COMBO,Public,24 hours daily,2021-05-04
129472,FLO - Cadillac Fairview - Masonville Place,"1680 Richmond St, London, ON",London,Ontario,43.027706,-81.277942,FLO,1,0.0,CHADEMO J1772COMBO,Public,24 hours daily,2019-07-17
129475,Oxford County - Ingersoll,16 King St W,Ingersoll,Ontario,43.037577,-80.883237,FLO,1,2.0,CHADEMO J1772 J1772COMBO,Public,24 hours daily,2019-07-17
85198,Tim Horton's,8089 Portage Rd,Niagara Falls,Ontario,43.059827,-79.053274,Non-Networked,1,0.0,CHADEMO J1772COMBO,Public,24 hours daily,2017-05-15
158041,JYSK - Niagara Falls,7555 Montrose Rd,Niagara Falls,Ontario,43.0659416,-79.1259231,Non-Networked,2,0.0,CHADEMO J1772COMBO,PLANNED - not yet accessible (Public),Unknown,
214722,Ivy - ONroute Woodstock,401225 Highway 401,Woodstock,Ontario,43.06662892,-80.79829985,IVY,4,0.0,CHADEMO J1772COMBO,Public - Credit card at all times,24 hours daily,2022-03-16
158040,LA Fitness,6777 Morrison St,Niagara Falls,Ontario,43.1051228,-79.1096048,Non-Networked,2,0.0,CHADEMO J1772COMBO,PLANNED - not yet accessible (Public),Unknown,
129481,Oxford County - Woodstock,580 Bruin Blvd.,Woodstock,Ontario,43.111857,-80.738677,FLO,1,2.0,CHADEMO J1772 J1772COMBO,Public,24 hours daily,2019-07-17
103130,Quality Inn & Suites - Tesla Supercharger,580 Bruin Blvd.,Woodstock,Ontario,43.111918,-80.738804,Tesla,8,0.0,TESLA,Public,24 hours daily; for Tesla use only,2015-02-01
129482,FLO - Canadian Tire - Niagara,7624 Regional Rd 57,Niagara Falls,Ontario,43.1141,-79.125047,FLO,2,2.0,CHADEMO J1772 J1772COMBO,Public,24 hours daily,2019-07-17
129483,FLO - Canadian Tire - Woodstock,465 Norwich Ave,Woodstock,Ontario,43.115847,-80.736863,FLO,1,1.0,CHADEMO J1772 J1772COMBO,Public,24 hours daily,2019-07-17
157892,Mount Carmel Centre - Tesla Supercharger,3770 Montrose Road,Niagara Falls,Ontario,43.116828,-79.124508,Tesla,12,0.0,TESLA,Public,24 hours daily; for Tesla use only,2020-05-01
211936,Transit: 75796 Woodstock,485 Dundas St.,Woodstock,Ontario,43.13038,-80.756733,EV Connect,1,0.0,CHADEMO J1772COMBO,Public,Unknown,2022-03-17
158067,Canadian Tire Corp,300 Glendale Ave,St. Catharines,Ontario,43.1341503,-79.2183716,Non-Networked,1,0.0,CHADEMO J1772COMBO,PLANNED - not yet accessible (Public),Unknown,
85116,Tim Horton's,1290 Colborne St E,Brantford,Ontario,43.14943609,-80.1870915,Non-Networked,1,0.0,CHADEMO J1772COMBO,Public,24 hours daily,2017-05-15
156674,Ivy - Brantford,80 King George Rd,Brantford,Ontario,43.16529055,-80.27460708,IVY,3,0.0,CHADEMO J1772COMBO,Public - Credit card at all times,24 hours daily; Also accepts in-app payment,2020-05-28
129488,FLO - Canadian Tire - Brantford,30 Lynden Rd,Brantford,Ontario,43.172782,-80.244395,FLO,1,2.0,CHADEMO J1772 J1772COMBO,Public,24 hours daily,2019-07-17
156670,Hydro One Inc,333 Lake St,St. Catharines,Ontario,43.18041107,-79.25200555,IVY,3,0.0,CHADEMO J1772COMBO,Public,24 hours daily,2021-11-19
87663,Tim Horton's,1180 Wilson St,Ancaster,Ontario,43.196149,-80.020687,Non-Networked,1,1.0,CHADEMO J1772 J1772COMBO,Public - Credit card at all times,24 hours daily,2017-06-01
158069,Canadian Tire Corp,1060 Wilson St W,Ancaster,Ontario,43.1998063,-80.0138415,Non-Networked,1,0.0,CHADEMO J1772COMBO,PLANNED - not yet accessible (Public),Unknown,
158068,Real Canadian Superstore,337 South Service Rd,Grimsby,Ontario,43.2042798,-79.5898923,Non-Networked,1,0.0,CHADEMO J1772COMBO,PLANNED - not yet accessible (Public),Unknown,
85148,Casablanca Winery Inn & Spa - Tesla Supercharger,4 Windward Drive,Grimsby,Ontario,43.209697,-79.600861,Tesla,8,0.0,TESLA,Public,24 hours daily; for Tesla use only,2016-05-15
121558,Audi Hamilton,1215 Upper James St,Hamilton,Ontario,43.215631,-79.887013,Non-Networked,1,0.0,CHADEMO J1772COMBO,Public,Dealership business hours; access code required,2019-01-01
122253,CF Lime Ridge - Tesla Supercharger,999 Upper Wentworth Street,Hamilton,Ontario,43.216698,-79.86401,Tesla,20,0.0,TESLA,Public,24 hours daily; for Tesla use only,2019-03-01
129489,FLO - Cadillac Fairview -  Lime Ridge Mall,999 Upper Wentworth St.,Hamilton,Ontario,43.217348,-79.86265,FLO,1,2.0,CHADEMO J1772 J1772COMBO,Public,24 hours daily,2019-07-17
94489,Transit: 3554 Stoney Creek,155 Green Road,Stoney Creek,Ontario,43.220618,-79.734423,EV Connect,1,0.0,CHADEMO J1772COMBO,Public,Unknown,2017-08-01
200835,Mobil,856 Upper Sherman Ave,Hamilton,Ontario,43.22103022,-79.85242496,CHARGELAB,4,0.0,CHADEMO J1772COMBO,Public - Credit card at all times,24 hours daily,2021-11-11
210194,Shell Canada Ltd,10 Legend Court,Ancaster,Ontario,43.22695136,-79.94778996,Non-Networked,2,0.0,Unknown,PLANNED - not yet accessible (Public),Unknown,
223661,Shell Canada Limited,10 Legend Ct,Ancaster,Ontario,43.22695136,-79.94778996,Non-Networked,1,0.0,Unknown,PLANNED - not yet accessible (Public),Unknown,
157850,Ontario Charging Network LP-Canadian Tire,686 Queenston Rd,Hamilton,Ontario,43.2285,-79.77316,Non-Networked,2,0.0,CHADEMO J1772COMBO,PLANNED - not yet accessible (Public),Unknown,
189168,Stoney Creek,686 QUEENSTON ROAD,Hamilton,Ontario,43.2286,-79.77384,Electrify Canada,4,0.0,CHADEMO J1772COMBO,Public,24 hours daily,2021-05-04
129490,FLO - Canadian Tire - Hamilton Mountain,777 Upper James St,Hamilton,Ontario,43.228748,-79.880776,FLO,1,2.0,CHADEMO J1772 J1772COMBO,Public,24 hours daily,2019-07-17
158054,Meadowlands Power Centre,14 Martindale Crescent,Hamilton,Ontario,43.2296491,-79.9395532,Non-Networked,2,0.0,CHADEMO J1772COMBO,PLANNED - not yet accessible (Public),Unknown,
208806,ChargerCrew Canada Inc,36 Ontario Street N,Grand Bend,Ontario,43.313898,-81.755071,Non-Networked,1,0.0,Unknown,PLANNED - not yet accessible (Public),Unknown,
122287,Mapleview Centre - Tesla Supercharger,900 Maple Avenue,Burlington,Ontario,43.326276,-79.822231,Tesla,16,0.0,TESLA,Public,24 hours daily; for Tesla use only,2019-03-01
83023,IKEA,1065 Plains Rd E,Burlington,Ontario,43.328164,-79.828969,Non-Networked,4,0.0,CHADEMO J1772COMBO,Public,24 hours daily,2017-02-01
219883,AURA Burlington Centre,777 Guelph Line,Burlington,Ontario,43.347144,-79.793638,FLO,3,0.0,CHADEMO J1772COMBO,Public,24 hours daily,2022-05-26
158053,Burlington Centre,777 Guelph Line,Burlington,Ontario,43.3485131,-79.7935979,Non-Networked,2,0.0,CHADEMO J1772COMBO,PLANNED - not yet accessible (Public),Unknown,
231060,Transit: 3240 Stratford,10 Wright Blvd.,Stratford,Ontario,43.360529,-81.008506,EV Connect,1,0.0,CHADEMO J1772COMBO,Public,Unknown,2022-09-30
94487,Scotiabank,10 Wright Blvd,Stratford,Ontario,43.360712,-81.008414,Non-Networked,1,0.0,CHADEMO J1772COMBO,Public,24 hours daily,2017-08-01
204889,Canadian Tire - Tesla Supercharger,100 Thames Rd E,Exeter,Ontario,43.3626527,-81.4795456,Tesla,8,0.0,TESLA,Public - Credit card at all times,24 hours daily,2022-01-13
87668,Transit: 82032 Burlington,5385 Lakeshore Rd east,Burlington,Ontario,43.368077,-79.730392,EV Connect,1,0.0,CHADEMO J1772COMBO,Public,Unknown,2017-06-01
84915,Burlington Nissan,4111 N Service Rd,Burlington,Ontario,43.369599,-79.785139,Non-Networked,2,3.0,CHADEMO J1772,Private - Call ahead,24 hours daily,2011-04-15
212245,Stratford,1093 Ontario Street,Stratford,Ontario,43.37079,-80.94386,FLO,2,1.0,CHADEMO J1772 J1772COMBO,Public,24 hours daily,2022-03-23
94488,Transit: 3654 Stratford,1 Ontario Street,Stratford,Ontario,43.37117,-80.984129,EV Connect,1,0.0,CHADEMO J1772COMBO,Public,Unknown,2017-08-01
85149,Tim Horton's,1470 Highway 6,Hamilton,Ontario,43.376783,-80.00409,Non-Networked,1,0.0,CHADEMO J1772COMBO,Public,24 hours daily,2017-05-15
210215,Shell Canada Ltd,3451 Rebecca St,Oakville,Ontario,43.38504947,-79.73498293,Non-Networked,2,0.0,Unknown,PLANNED - not yet accessible (Public),Unknown,
210198,Shell Canada Ltd,1235 Appleby Line,Burlington,Ontario,43.38759715,-79.78045248,Non-Networked,2,0.0,Unknown,PLANNED - not yet accessible (Public),Unknown,
158051,Nike Factory Store,3509 Wyecroft Rd,Oakville,Ontario,43.3964291,-79.7494071,Non-Networked,2,0.0,CHADEMO J1772COMBO,PLANNED - not yet accessible (Public),Unknown,
129496,FLO - Canadian Tire - Burlington,2070 Appleby Line,Burlington,Ontario,43.396617,-79.795893,FLO,2,2.0,CHADEMO J1772 J1772COMBO,Public,24 hours daily,2019-07-17
129497,FLO - Canadian Tire - Cambridge North,239 Fountain St S,Cambridge,Ontario,43.398023,-80.370483,FLO,1,2.0,CHADEMO J1772 J1772COMBO,Public,24 hours daily,2019-07-17
87669,Scotiabank,544 Hespeler Rd,Cambridge,Ontario,43.401841,-80.32671,Non-Networked,1,0.0,CHADEMO J1772COMBO,TEMPORARILY UNAVAILABLE (Public),24 hours daily,2017-06-01
122315,SmartCentres Cambridge - Tesla Supercharger,22 Pinebush Road,Cambridge,Ontario,43.408785,-80.325434,Tesla,16,0.0,TESLA,Public,24 hours daily; for Tesla use only,2019-03-01
156673,Hydro One Inc,145 McGovern Dr,Cambridge,Ontario,43.409694,-80.3359789,Non-Networked,3,0.0,CHADEMO J1772COMBO,PLANNED - not yet accessible (Public),Unknown,
129499,FLO - Cadillac Fairview - Fairview Park Mall,2960 Kingsway Dr,Kitchener,Ontario,43.425241,-80.439443,FLO,1,2.0,CHADEMO J1772 J1772COMBO,Public,24 hours daily,2019-07-17
94470,Tim Horton's,1530 N Service Rd W,Oakville,Ontario,43.42637,-79.726171,Non-Networked,1,0.0,CHADEMO J1772COMBO,Public,24 hours daily,2020-06-01
129500,FLO - Canadian Tire - Kitchener,2905 King St E,Kitchener,Ontario,43.429016,-80.435596,FLO,1,0.0,CHADEMO J1772COMBO,Public,24 hours daily,2019-07-17
207855,Ivy - ONroute Cambridge South,289 ON-401,Cambridge,Ontario,43.43334602,-80.24552791,IVY,4,0.0,CHADEMO J1772COMBO,Public - Credit card at all times,24 hours daily,2022-03-07
207856,Ivy - ONroute Cambridge North,290 Highway 401,Cambridge,Ontario,43.43525621,-80.24584462,IVY,4,0.0,CHADEMO J1772COMBO,Public - Credit card at all times,24 hours daily,2022-03-07
85201,Tim Horton's,228 Wyecroft Rd,Oakville,Ontario,43.446888,-79.694967,Non-Networked,1,0.0,CHADEMO J1772COMBO,Public,24 hours daily,2017-05-15
157848,Ontario Charging Network LP Canadian Tire,656 Erb St W,Waterloo,Ontario,43.44774,-80.57394,Non-Networked,2,0.0,CHADEMO J1772COMBO,PLANNED - not yet accessible (Public),Unknown,
129502,FLO - Canadian Tire - Oakville,1100 Kerr St,Oakville,Ontario,43.449901,-79.697644,FLO,2,2.0,CHADEMO J1772 J1772COMBO,Public,24 hours daily,2019-07-17
88074,Transit: 64832 Waterloo,12 Fischer-Hallman Road N.,Waterloo,Ontario,43.453863,-80.553791,EV Connect,1,0.0,CHADEMO J1772COMBO,Public,Unknown,2017-04-01
157890,Tesla Kitchener - Tesla Supercharger,663 Victoria Street North,Kitchener,Ontario,43.461251,-80.472322,Tesla,8,0.0,TESLA,Public,24 hours daily; for Tesla use only,2020-05-01
158050,Oakville Place,240 Leighland Ave,Oakville,Ontario,43.461607,-79.6868686,Non-Networked,2,0.0,CHADEMO J1772COMBO,PLANNED - not yet accessible (Public),Unknown,
208793,Baseload Power Corp,240 Leighland Avenue,Oakville,Ontario,43.46181724,-79.68690079,Non-Networked,2,0.0,Unknown,PLANNED - not yet accessible (Public),Unknown,
212080,Puslinch Library,29 Brock Road South RR3,Aberfoyle,Ontario,43.471537,-80.149843,SHELL_RECHARGE,1,0.0,CHADEMO J1772COMBO,Public,24 hours daily,2022-03-21
129505,University of Waterloo,263 Philip St.,Waterloo,Ontario,43.472984,-80.53837,FLO,1,1.0,CHADEMO J1772 J1772COMBO,Public,24 hours daily,2019-07-17
129509,FLO - Canadian Tire - Waterloo,400 Weber St N,Waterloo,Ontario,43.485126,-80.524241,FLO,2,2.0,CHADEMO J1772 J1772COMBO,Public,24 hours daily,2019-07-17
206680,Ivy - Oakland,400 Dundas St E,Oakville,Ontario,43.48907258,-79.71590805,IVY,2,0.0,CHADEMO J1772COMBO,Public - Credit card at all times,24 hours daily,2022-02-11
158049,Canadian Tire Corp,900-980 Southdown Rd,Mississauga,Ontario,43.5087367,-79.6289806,Non-Networked,2,0.0,CHADEMO J1772COMBO,PLANNED - not yet accessible (Public),Unknown,
208790,Baseload Power Corp,900-980 Southdown Road,Mississauga,Ontario,43.50892343,-79.6289806,Non-Networked,4,0.0,Unknown,PLANNED - not yet accessible (Public),Unknown,
83236,Petro-Canada,235 Steeles Ave E,Milton,Ontario,43.52206,-79.893905,PETROCAN,2,1.0,CHADEMO J1772 J1772COMBO,Public,24 hours daily,2016-11-02
129513,FLO - Canadian Tire - Milton,20 Market Dr,Milton,Ontario,43.523499,-79.899493,FLO,1,2.0,CHADEMO J1772 J1772COMBO,Public,24 hours daily,2019-07-17
157849,Ontario Charging Network LP-Canadian Tire,127 Stone Rd W,Guelph,Ontario,43.52367,-80.23057,Non-Networked,2,0.0,CHADEMO J1772COMBO,PLANNED - not yet accessible (Public),Unknown,
226105,Wallace Cadillac - Fast Charger,801 MAIN ST E,Milton,Ontario,43.526654,-79.869594,FLO,1,0.0,CHADEMO J1772COMBO,Public,24 hours daily,2022-08-23
158070,Mobil,900 Main St E,Milton,Ontario,43.5276242,-79.866762,Non-Networked,1,0.0,CHADEMO J1772COMBO,PLANNED - not yet accessible (Public),Unknown,
84576,Barry Cullen Chevrolet,905 Woodlawn Rd W,Guelph,Ontario,43.536919,-80.318227,Non-Networked,1,3.0,J1772,Public - Call ahead,"Dealership business hours, for client use only",2016-09-15
99196,Dominion Building,138 Wyndham Street North,Guelph,Ontario,43.546952,-80.250767,SHELL_RECHARGE,1,0.0,CHADEMO J1772COMBO,Public,24 hours daily,2018-06-14
163058,GVW CPE100,359 Woodlawn Rd W,Guelph,Ontario,43.54775,-80.30305,ChargePoint Network,1,0.0,J1772COMBO,Public,24 hours daily,2020-06-12
201702,Denny's,327 Woodlawn Rd W,Guelph,Ontario,43.54890338,-80.30033967,SWTCH,1,0.0,CHADEMO J1772COMBO,Public - Credit card at all times,24 hours daily,2021-11-23
210213,Shell Canada Ltd,780 South Sheridan Way,Mississauga,Ontario,43.55024753,-79.61585217,Non-Networked,2,0.0,Unknown,PLANNED - not yet accessible (Public),Unknown,
94478,Transit: 20842 Port Credit,158 Lakeshore Road East,Port Credit,Ontario,43.556359,-79.580945,EV Connect,1,0.0,CHADEMO J1772COMBO,Public,Unknown,2017-08-01
189156,Toronto Premium Outlets,"13850 Steeles Avenue W Halton Hills, Ontario",Toronto,Ontario,43.57647,-79.82757,Electrify Canada,4,0.0,CHADEMO J1772COMBO,Public,24 hours daily,2021-05-04
158048,RioCan Grand Park,3920-3980 Grand Park Dr,Mississauga,Ontario,43.5801567,-79.6470088,Non-Networked,2,0.0,CHADEMO J1772COMBO,PLANNED - not yet accessible (Public),Unknown,
88683,Scotiabank,5201 Ament Line,Linwood,Ontario,43.581519,-80.728389,Non-Networked,1,0.0,CHADEMO J1772COMBO,Public,24 hours daily,2017-06-01
88690,Scotiabank,3925 Kirwin Ave,Mississauga,Ontario,43.5834681,-79.6203344,Non-Networked,1,0.0,CHADEMO J1772COMBO,Public,24 hours daily,2017-06-01
231066,Transit: 13342 Mississauga,3295 Kirwin Avenue,Mississauga,Ontario,43.583515,-79.620338,EV Connect,1,0.0,CHADEMO J1772COMBO,TEMPORARILY UNAVAILABLE (Public),Unknown,2022-09-30
84322,Addison Chevrolet GMC,6600 Turner Valley Rd,Mississauga,Ontario,43.597203,-79.740092,Non-Networked,1,1.0,J1772 J1772COMBO,Public,Business hours,2016-05-29
157873,Ontario Charging Network LP-Home Depot,2920 Argentia Rd,Mississauga,Ontario,43.59808,-79.77959,Non-Networked,2,0.0,CHADEMO J1772COMBO,PLANNED - not yet accessible (Public),Unknown,
122288,Meadowvale - Tesla Supercharger,3155 Argentia Road,Mississauga,Ontario,43.598406,-79.786219,Tesla,16,0.0,TESLA,Public,24 hours daily; for Tesla use only,2019-03-01
129519,FLO - Canadian Tire - Mississauga Dundas St.,1202 Dundas St E,Mississauga,Ontario,43.604555,-79.588165,FLO,1,2.0,CHADEMO J1772 J1772COMBO,Public,24 hours daily,2019-07-17
227824,6880 Financial Drive,6880 Financial Dr,Mississauga,Ontario,43.608484,-79.74507,EV Connect,2,0.0,CHADEMO J1772COMBO,Public,Unknown,2017-05-15
206681,Ivy - Mississauga,5970 Mavis Rd,Mississauga,Ontario,43.61157057,-79.6956266,IVY,2,0.0,CHADEMO J1772COMBO,Public - Credit card at all times,24 hours daily,2022-02-11
129522,FLO - Cadillac Fairview - Sherway Gardens,25 The West Mall,Etobicoke,Ontario,43.612973,-79.559993,FLO,1,2.0,CHADEMO J1772 J1772COMBO,Public,24 hours daily,2019-07-17
122256,CF Sherway Gardens - Tesla Supercharger,25 The West Mall,Etobicoke,Ontario,43.613938,-79.55414,Tesla,20,0.0,TESLA,Public,24 hours daily; for Tesla use only,2019-03-01
158047,Sandalwood Square,60 Bristol Rd E,Mississauga,Ontario,43.6151424,-79.6606372,Non-Networked,2,0.0,CHADEMO J1772COMBO,PLANNED - not yet accessible (Public),Unknown,
129523,FLO - Canadian Tire - Etobicoke,1612 The Queensway,Etobicoke,Ontario,43.617111,-79.544867,FLO,1,2.0,CHADEMO J1772 J1772COMBO,Public,24 hours daily,2019-07-17
83428,IKEA,1475 The Queensway,Toronto,Ontario,43.618926,-79.534487,Non-Networked,2,0.0,CHADEMO J1772COMBO,Public,24 hours daily,2017-03-01
210212,Shell Canada Ltd,745 Courtneypark Dr W,Mississauga,Ontario,43.62454604,-79.71140326,Non-Networked,2,0.0,Unknown,PLANNED - not yet accessible (Public),Unknown,
83635,Addison Chevrolet,1220 Eglinton Ave E,Mississauga,Ontario,43.631541,-79.624115,Non-Networked,1,1.0,J1772 J1772COMBO,Public,Dealership business hours; for client use only,2015-03-15
200537,Hotel X - Tesla Supercharger,111 Princes' Boulevard,Toronto,Ontario,43.632655,-79.411641,Tesla,12,0.0,TESLA,Public,24 hours daily; for Tesla use only,2021-10-11
231069,60 Courtneypark Dr,60 Courtneypark Dr,Ontario,Ontario,43.635722,-79.694472,EV Connect,2,0.0,CHADEMO J1772COMBO,Public,Unknown,2022-09-30
129526,FLO - Canadian Tire - Mississauga Dixie Rd,5067 Dixie Rd,Mississauga,Ontario,43.636621,-79.621466,FLO,1,2.0,CHADEMO J1772 J1772COMBO,Public,24 hours daily,2019-07-17
84532,Triovest,80 Courtneypark Dr E,Mississauga,Ontario,43.637139,-79.691526,Non-Networked,2,0.0,CHADEMO J1772COMBO,Public - Credit card at all times,24 hours daily; EV Route App,2017-05-15
85299,Triovest,4715 Tahoe Blvd,Mississauga,Ontario,43.638814,-79.607758,Non-Networked,2,2.0,CHADEMO J1772,TEMPORARILY UNAVAILABLE (Public),24 hours daily,2018-05-15
231068,4701 Tahoe Blvd,4701 Tahoe Blvd,Mississauga,Ontario,43.638824,-79.608837,EV Connect,2,0.0,CHADEMO J1772COMBO,Public,Unknown,2022-09-30
129348,30 The Queensway,30 The Queensway,Toronto,Ontario,43.639359,-79.450101,FLO,1,2.0,CHADEMO J1772 J1772COMBO,Public,24 hours daily,2019-07-17
199445,100 Queens Quay East,100 Queens Quay East,Toronto,Ontario,43.643603,-79.370949,FLO,2,6.0,CHADEMO J1772 J1772COMBO,Public,24 hours daily,2021-10-29
84140,ImPark - Citibank Building,123 Front St W,Toronto,Ontario,43.645275,-79.38256,Non-Networked,1,0.0,CHADEMO J1772COMBO,Public,24 hours daily,2017-05-17
84166,Metro Centre,200 Wellington St W,Toronto,Ontario,43.645863,-79.387849,Non-Networked,2,0.0,CHADEMO J1772COMBO,TEMPORARILY UNAVAILABLE (Public),24 hours daily,2021-03-26
85314,Royal Bank Plaza,200 Bay St,Toronto,Ontario,43.646302,-79.379753,Non-Networked,1,4.0,CHADEMO J1772 J1772COMBO,Public,24 hours daily,2017-05-15
129533,7120 Hurontario (2019),7120 Hurontario St,Mississauga,Ontario,43.647357,-79.709644,FLO,1,6.0,CHADEMO J1772 J1772COMBO,Public,24 hours daily,2019-07-17
231063,145 King St. W. Toronto,145 King St. W,Toronto,Ontario,43.647473,-79.383952,EV Connect,1,0.0,CHADEMO J1772COMBO,Public,Unknown,2022-09-30
231064,200 King St W (Sunlife Centre Toronto),200 King Street West,Toronto,Ontario,43.647828,-79.385755,EV Connect,1,0.0,CHADEMO J1772COMBO,Public,Unknown,2022-09-30
85235,ImPark - Sun Life Centre,200 King St W,Toronto,Ontario,43.647915,-79.385723,Non-Networked,1,0.0,CHADEMO J1772COMBO,Public,24 hours daily; for client use only,2017-05-15
180385,CHARGEPOINT 001 MMC DC CHADEMO,2090 Matheson Blvd E,Mississauga,Ontario,43.652635,-79.614324,ChargePoint Network,1,0.0,CHADEMO J1772COMBO,Public,24 hours daily,2021-01-27
231059,Cooper Koo Family YMCA,461 Cherry St,Toronto,Ontario,43.653395,-79.357976,EV Connect,1,0.0,CHADEMO J1772COMBO,Public,Unknown,2022-09-30
85241,ImPark - University Centre,393 University Ave,Toronto,Ontario,43.653998,-79.387212,Non-Networked,1,0.0,CHADEMO J1772COMBO,Public,5am-6pm; parking fee required,2017-05-15
210225,Shell Canada Ltd,548 Richmond St E,Toronto,Ontario,43.65506444,-79.36340584,Non-Networked,2,0.0,Unknown,PLANNED - not yet accessible (Public),Unknown,
186329,FLO - Cadillac Fairview - Toronto Eaton Centre,220 Yonge St (525 Bay & Dundas Parkade P2),Toronto,Ontario,43.655071,-79.383059,FLO,1,1.0,CHADEMO J1772 J1772COMBO,Public,24 hours daily,2021-03-18
122257,CF Toronto Eaton Centre - Tesla Supercharger,220 Yonge Street,Toronto,Ontario,43.655596,-79.382963,Tesla,16,0.0,TESLA,Public,24 hours daily; for Tesla use only,2019-03-01
84526,ImPark - Lucliff Place,700 Bay St,Toronto,Ontario,43.658226,-79.385065,EV Connect,1,0.0,CHADEMO J1772COMBO,Private,24 hours daily,2017-05-15
231065,661 University Ave (MaRS Centre Toronto),661 University Ave,Toronto,Ontario,43.659501,-79.38967,EV Connect,1,0.0,CHADEMO J1772COMBO,Public,Unknown,2022-09-30
83833,Nissan Canada Financial Services Inc,5290 Orbitor Dr,Mississauga,Ontario,43.659886,-79.607736,Non-Networked,1,4.0,CHADEMO J1772,Public - Call ahead,Dealership business hours,2013-03-15
84524,ImPark,175 Bloor St E,Toronto,Ontario,43.668613,-79.394558,Non-Networked,1,1.0,CHADEMO J1772 J1772COMBO,Public,24 hours daily,2017-05-15
231061,55 Bloor Street West,55 Bloor Street West,Toronto,Ontario,43.669179,-79.38813,EV Connect,1,0.0,CHADEMO J1772COMBO,Public,Unknown,2022-09-30
201486,GTAA TRCA ABL-L3-5,3061 Convair Dr,Mississauga,Ontario,43.669669,-79.59609,ChargePoint Network,1,0.0,CHADEMO J1772COMBO,Public,24 hours daily,2021-11-23
201485,GTAA TRCA ABL-L3-4,3061 Convair Dr,Mississauga,Ontario,43.66969,-79.596079,ChargePoint Network,1,0.0,CHADEMO J1772COMBO,Public,24 hours daily,2021-11-23
201483,GTAA TRCA ABL-L3-3,3061 Convair Dr,Mississauga,Ontario,43.669717,-79.596063,ChargePoint Network,1,0.0,CHADEMO J1772COMBO,TEMPORARILY UNAVAILABLE (Public),24 hours daily,2021-11-23
201484,GTAA TRCA ABL-L3-2,3061 Convair Dr,Mississauga,Ontario,43.669737,-79.596044,ChargePoint Network,1,0.0,CHADEMO J1772COMBO,Public,24 hours daily,2021-11-23
202452,GTAA TRCA ABL-L3-1,3063 Convair Dr,Mississauga,Ontario,43.66976,-79.596028,ChargePoint Network,1,0.0,CHADEMO J1772COMBO,Public,24 hours daily,2021-12-14
157861,Ontario Charging Network LP Canadian Tire,2129 St Clair Ave W,Toronto,Ontario,43.67043,-79.47197,Non-Networked,2,0.0,CHADEMO J1772COMBO,PLANNED - not yet accessible (Public),Unknown,
158072,Waypoint Convenience Keelsdale,15 Photography Dr,Toronto,Ontario,43.6862558,-79.4825385,Non-Networked,1,0.0,CHADEMO J1772COMBO,PLANNED - not yet accessible (Public),Unknown,
180469,GTAA TRCA CL-L3-5,2-3 Network Rd,Mississauga,Ontario,43.69116,-79.617093,ChargePoint Network,1,0.0,CHADEMO J1772COMBO,Public,24 hours daily,2021-01-27
180471,GTAA TRCA CL-L3-4,2-3 Network Rd,Mississauga,Ontario,43.691165,-79.617124,ChargePoint Network,1,0.0,CHADEMO J1772COMBO,TEMPORARILY UNAVAILABLE (Public),24 hours daily,2021-01-27
192802,GTAA TRCA CL-L3-3,2-3 Network Rd,Mississauga,Ontario,43.691175,-79.617156,ChargePoint Network,1,0.0,CHADEMO J1772COMBO,Public,24 hours daily,2021-07-14
163106,GTAA TRCA CL-L3-2,2-3 Network Rd,Mississauga,Ontario,43.691183,-79.617187,ChargePoint Network,1,0.0,CHADEMO J1772COMBO,Public,24 hours daily,2020-06-12
180472,GTAA TRCA CL-L3-1,2-3 Network Rd,Mississauga,Ontario,43.691193,-79.617219,ChargePoint Network,1,0.0,CHADEMO J1772COMBO,Public,24 hours daily,2021-01-27
157872,Ontario Charging Network LP Home Depot,825 Caledonia Rd,Toronto,Ontario,43.70196,-79.46229,Non-Networked,2,0.0,CHADEMO J1772COMBO,PLANNED - not yet accessible (Public),Unknown,
87685,Frost GM,150 Bovaird Dr,Brampton,Ontario,43.704824,-79.789007,Non-Networked,1,0.0,J1772COMBO,Public - Call ahead,"9am-8pm M-T, 9am-5pm Fri-Sat",2017-11-01
227724,Mobil,2545 Weston Rd,York,Ontario,43.70800321,-79.53331189,IVY,4,0.0,CHADEMO J1772COMBO,Public - Credit card at all times,24 hours daily,2022-09-13
210211,Shell Canada Ltd,6990 Rexwood Road,Mississauga,Ontario,43.71655247,-79.62781675,Non-Networked,2,0.0,Unknown,PLANNED - not yet accessible (Public),Unknown,
223659,Shell Canada Limited,6990 Rexwood Rd,Mississauga,Ontario,43.71655247,-79.62781675,Non-Networked,1,0.0,Unknown,PLANNED - not yet accessible (Public),Unknown,
208795,Baseload Power Corp,700 Lawrence Avenue West,Toronto,Ontario,43.71757889,-79.44717855,Non-Networked,4,0.0,Unknown,PLANNED - not yet accessible (Public),Unknown,
129545,10 Peel Centre Drive - Suite A,10 Peel Centre Dr,Brampton,Ontario,43.719035,-79.722865,FLO,1,4.0,CHADEMO J1772 J1772COMBO,Public,24 hours daily,2019-07-17
158073,Fortinos,330 Queensplate Dr,Etobicoke,Ontario,43.7214387,-79.5962916,Non-Networked,1,0.0,CHADEMO J1772COMBO,PLANNED - not yet accessible (Public),Unknown,
94491,Scotiabank,1880 Eglinton Ave E,Scarborough,Ontario,43.72553,-79.299486,Non-Networked,1,2.0,CHADEMO J1772 J1772COMBO,Public,24 hours daily,2017-08-01
211937,Transit: 4690 North York,90 Wynford Dr.,North York,Ontario,43.726536,-79.333092,EV Connect,1,0.0,CHADEMO J1772COMBO,Public,Unknown,2022-03-17
211938,Transit: 69542 North York,2201 Eglinton Ave East,North York,Ontario,43.729329,-79.280717,EV Connect,1,4.0,CHADEMO J1772 J1772COMBO,Public,Unknown,2022-03-17
158052,Trinity Commons Square,10-210 Great Lakes Dr,Brampton,Ontario,43.7304317,-79.7615416,Non-Networked,2,0.0,CHADEMO J1772COMBO,PLANNED - not yet accessible (Public),Unknown,
210196,Shell Canada Ltd,5 Great Lakes Dr,Brampton,Ontario,43.73090749,-79.75978982,Non-Networked,2,0.0,Unknown,PLANNED - not yet accessible (Public),Unknown,
88684,Transit: 18242 Listowel,190 Main Street East,Listowel,Ontario,43.730962,-80.952263,EV Connect,1,0.0,CHADEMO J1772COMBO,Public,Unknown,2017-06-01
157874,Ontario Charging Network LP-Home Depot,60 Great Lakes Dr,Brampton,Ontario,43.731,-79.76784,Non-Networked,2,0.0,CHADEMO J1772COMBO,PLANNED - not yet accessible (Public),Unknown,
157871,Ontario Charging Network LP Home Depot,90 Billy Bishop Way,Toronto,Ontario,43.73132,-79.45325,Non-Networked,2,0.0,CHADEMO J1772COMBO,PLANNED - not yet accessible (Public),Unknown,
208796,Baseload Power Corp,10-210 Great Lakes Drive,Brampton,Ontario,43.73245604,-79.76637437,Non-Networked,2,0.0,Unknown,PLANNED - not yet accessible (Public),Unknown,
163032,YORKDALE VW YORKDALECPE100,600 Wilson Ave,Toronto,Ontario,43.733062,-79.457607,ChargePoint Network,1,0.0,J1772COMBO,Public,24 hours daily,2020-06-12
129547,FLO - Cadillac Fairview -  Shops at Don Mills,1090 Don Mills Rd,Toronto,Ontario,43.735299,-79.345475,FLO,1,2.0,CHADEMO J1772 J1772COMBO,Public,24 hours daily,2019-07-17
157870,Ontario Charging Network LP Home Depot,2911 Eglinton Ave E,Toronto,Ontario,43.73821,-79.2363,Non-Networked,2,0.0,CHADEMO J1772COMBO,PLANNED - not yet accessible (Public),Unknown,
224626,2 Gateway Blvd,2 Gateway Blvd,Brampton,Ontario,43.73847,-79.700201,FLO,1,1.0,CHADEMO J1772 J1772COMBO,Public,24 hours daily,2022-07-29
191477,CALEDON MDL,6-8 Snelcrest Dr,Caledon,Ontario,43.743886,-79.833669,ChargePoint Network,1,0.0,CHADEMO J1772COMBO,TEMPORARILY UNAVAILABLE (Public),24 hours daily,2021-06-25
210214,Shell Canada Ltd,4021 Yonge St,North York,Ontario,43.7440096,-79.4059934,Non-Networked,2,0.0,Unknown,PLANNED - not yet accessible (Public),Unknown,
84004,York Mills Centre,36 York Mills Rd,Toronto,Ontario,43.744452,-79.404192,Non-Networked,1,5.0,CHADEMO J1772,Public,24 hours daily; variable parking fee,2016-03-05
208805,ChargerCrew Canada Inc,91 Hamilton Street,Goderich,Ontario,43.74529,-81.708428,Non-Networked,1,0.0,Unknown,PLANNED - not yet accessible (Public),Unknown,
163055,STATION CPE100,15 Coachworks Cres,Brampton,Ontario,43.758114,-79.794077,ChargePoint Network,1,0.0,J1772COMBO,Public,24 hours daily,2020-06-12
85232,IKEA,15 Provost Dr,North York,Ontario,43.768058,-79.369078,Non-Networked,2,0.0,CHADEMO J1772COMBO,Public,24 hours daily,2017-05-15
208794,Baseload Power Corp,5095 Yonge St,Toronto,Ontario,43.76889587,-79.41232484,Non-Networked,1,0.0,Unknown,PLANNED - not yet accessible (Public),Unknown,
158042,Kennedy Commons,2021 Kennedy Rd,Toronto,Ontario,43.771699,-79.2830523,Non-Networked,2,0.0,CHADEMO J1772COMBO,PLANNED - not yet accessible (Public),Unknown,
85315,ImPark - Atria,2235 Sheppard Ave E,Toronto,Ontario,43.772736,-79.327856,Non-Networked,1,3.0,CHADEMO J1772 J1772COMBO,Public,24 hours daily,2017-05-15
156776,Suncor,Victoria Park and Sheppard,North York,Ontario,43.7752352,-79.3252687,Non-Networked,1,0.0,CHADEMO J1772COMBO,PLANNED - not yet accessible (Public),Unknown,
149338,CF Fairview Mall - Tesla Supercharger,1800 Sheppard Avenue East,North York,Ontario,43.775977,-79.344475,Tesla,20,0.0,TESLA,Public,24 hours daily; for Tesla use only,2019-09-30
129553,FLO - Cadillac Fairview - Fairview Mall,1800 Sheppard Ave E,North York,Ontario,43.777867,-79.3463,FLO,1,2.0,CHADEMO J1772 J1772COMBO,Public,24 hours daily,2019-07-17
129554,Needs Shelburne,90 Ohio Rd,Shelburne,Nova Scotia,43.778275,-65.338873,FLO,1,1.0,CHADEMO J1772 J1772COMBO,Public,24 hours daily,2019-07-17
158044,Tim Horton's,7501 Weston Rd,Vaughan,Ontario,43.7827886,-79.5454457,Non-Networked,2,0.0,CHADEMO J1772COMBO,PLANNED - not yet accessible (Public),Unknown,
83985,ImPark,5775 Yonge St,Toronto,Ontario,43.78332,-79.416048,Non-Networked,1,2.0,CHADEMO J1772 J1772COMBO,Public,24 hours daily,2017-05-15
153620,Petro-Canada EV Fast Charger,3100 Ellesmere Rd,Scarborough,Ontario,43.785642,-79.1940392,PETROCAN,2,1.0,CHADEMO J1772 J1772COMBO,Public,24 hours daily,2020-01-01
85319,Toronto and Region Conservation - Head Office,101 Exchange Ave,Vaughan,Ontario,43.78603,-79.532061,Non-Networked,1,2.0,CHADEMO J1772 J1772COMBO,Public,24 hours daily,2017-05-15
87662,Transit: 91082 Toronto,4220 Sheppard Ave East,Toronto,Ontario,43.786042,-79.277752,EV Connect,1,0.0,CHADEMO J1772COMBO,TEMPORARILY UNAVAILABLE (Public),Unknown,2017-06-01
83432,IKEA,200 Interchange Way,Vaughan,Ontario,43.787562,-79.530244,Non-Networked,2,0.0,CHADEMO J1772COMBO,Public,24 hours daily,2017-05-15
153618,Petro-Canada EV Fast Charger,3733 Highway 7 W,Woodbridge,Ontario,43.7890617,-79.5468302,PETROCAN,2,0.0,CHADEMO J1772COMBO,Public,24 hours daily,2020-01-01
189159,Agincourt ( Canadian Tire),4630 Sheppard Ave,Scarborough,Ontario,43.7899,-79.26023,Electrify Canada,4,0.0,CHADEMO J1772COMBO,Public,24 hours daily,2021-05-04
129557,FLO - Canadian Tire - Woodbridge,3850 Hwy 7,Woodbridge,Ontario,43.790349,-79.55176,FLO,2,2.0,CHADEMO J1772 J1772COMBO,Public,24 hours daily,2019-07-17
150381,SENECA-NH CPE250-2,Au Large Blvd,Toronto,Ontario,43.795856,-79.35148,ChargePoint Network,1,0.0,CHADEMO J1772COMBO,Public,24 hours daily,2019-12-20
149884,SENECA-NH CPE250-1,55 Skymark Dr,Toronto,Ontario,43.79586,-79.351494,ChargePoint Network,1,0.0,CHADEMO J1772COMBO,Public,24 hours daily,2019-12-11
210221,Shell Canada Ltd,6731 Kingston Rd,Scarborough,Ontario,43.7970149,-79.14865064,Non-Networked,2,0.0,Unknown,PLANNED - not yet accessible (Public),Unknown,
157868,Ontario Charging Network LP Home Depot,60 Grand Marshall Dr,Toronto,Ontario,43.80183,-79.19611,Non-Networked,2,0.0,CHADEMO J1772COMBO,PLANNED - not yet accessible (Public),Unknown,
157807,Ontario Charging Network LP Bathurst Clark Resource Library,900 Clark Ave W,Thornhill,Ontario,43.80323,-79.45244,Non-Networked,2,0.0,CHADEMO J1772COMBO,PLANNED - not yet accessible (Public),Unknown,
157806,Ontario Charging Network Al Palladini Community Centre,9201 Islington Ave,Woodbridge,Ontario,43.81652,-79.5972,Non-Networked,2,0.0,CHADEMO J1772COMBO,PLANNED - not yet accessible (Public),Unknown,
122340,Vaughan Mills - Tesla Supercharger,1 Bass Pro Mills Drive,Concord,Ontario,43.82729,-79.538883,Tesla,20,0.0,TESLA,Public,24 hours daily; for Tesla use only,2019-03-01
99197,Arthur Library,110 Charles Street East,Arthur,Ontario,43.831205,-80.534873,SHELL_RECHARGE,1,0.0,CHADEMO J1772COMBO,Public,24 hours daily,2018-06-14
84910,VanDusen Chevrolet Buick GMC,425 Bayly St W,Ajax,Ontario,43.83961,-79.033281,Non-Networked,1,1.0,J1772 J1772COMBO,Public - Call ahead,24 hours daily,2011-09-15
129560,FLO - Canadian Tire - Richmond Hill,8830 Yonge St,Richmond Hill,Ontario,43.842636,-79.431046,FLO,2,2.0,CHADEMO J1772 J1772COMBO,Public,24 hours daily,2019-07-17
129561,Shell Yarmouth,87 Starrs Rd,Yarmouth,Nova Scotia,43.842732,-66.103923,FLO,1,1.0,CHADEMO J1772 J1772COMBO,Public,24 hours daily,2019-07-17
129562,FLO - Canadian Tire - Pickering,1735 Pickering Pkwy,Pickering,Ontario,43.842953,-79.069323,FLO,2,2.0,CHADEMO J1772 J1772COMBO,Public,24 hours daily,2019-07-17
105571,SmartCentres Pickering - Tesla Supercharger,1899 Brock Road,Pickering,Ontario,43.846138,-79.072896,Tesla,20,0.0,TESLA,Public,24 hours daily; for Tesla use only,2018-12-01
221267,Alectra - 161 Cityview (Fast Charging),161 Cityview Blvd,Woodbridge,Ontario,43.849992,-79.552448,FLO,1,0.0,CHADEMO J1772COMBO,Public,24 hours daily,2022-06-14
83841,Alectra Utilities,161 Cityview Blvd,Vaughan,Ontario,43.850021,-79.551219,Non-Networked,2,0.0,CHADEMO J1772COMBO,Public,24 hours daily,2017-03-02
122316,SmartCentres Markham Woodside - Tesla Supercharger,3075 Highway 7,Markham,Ontario,43.850229,-79.353535,Tesla,20,0.0,TESLA,Public,24 hours daily; for Tesla use only,2019-03-01
182438,HYUNDAI CANADA CPE100-1,75 Frontenac Dr,Markham,Ontario,43.850906,-79.360303,ChargePoint Network,1,0.0,J1772COMBO,Public,Mon 12:00am - 12:00am; Tue 12:00am - 12:00am; Wed 12:00am - 12:00am; Thu 12:00am - 12:00am; Fri 12:00am - 12:00am; Sat 12:00am - 12:00am; Sun 12:00am - 12:00am,2021-01-27
88687,YMCA Markham,101 YMCA Blvd,Unionville,Ontario,43.852443,-79.310817,EV Connect,1,0.0,CHADEMO J1772COMBO,Public,Unknown,2017-06-01
157869,Ontario Charging Network LP-Home Depot,50 Kirkham Dr,Markham,Ontario,43.85249,-79.25198,Non-Networked,2,0.0,CHADEMO J1772COMBO,PLANNED - not yet accessible (Public),Unknown,
180553,T+C BMW T+C FAST CHARGR,8111 Kennedy Rd,Markham,Ontario,43.854139,-79.306103,ChargePoint Network,1,0.0,J1772COMBO,TEMPORARILY UNAVAILABLE (Public),24 hours daily,2021-01-27
129564,Markham - Civic Centre,101 Town Centre Blvd,Markham,Ontario,43.85708806,-79.33746001,FLO,1,0.0,CHADEMO J1772COMBO,Public,24 hours daily,2019-07-17
157852,Ontario Charging Network LP-Canadian Tire,99 McEwan Dr E,Bolton,Ontario,43.86186,-79.70966,Non-Networked,2,0.0,CHADEMO J1772COMBO,PLANNED - not yet accessible (Public),Unknown,
210146,Oshawa Power and Utilities Corp,175-117 Lakeview Park Avenue,Oshawa,Ontario,43.862439,-78.832422,Non-Networked,3,0.0,Unknown,PLANNED - not yet accessible (Public),Unknown,
158036,Lakeview Park,175-117 Lakeview Park Ave,Oshawa,Ontario,43.8630605,-78.8303127,Non-Networked,3,0.0,CHADEMO J1772COMBO,PLANNED - not yet accessible (Public),Unknown,
158039,Kaboom Fireworks,40 Kingston Rd E,Ajax,Ontario,43.8636263,-79.0230194,Non-Networked,2,0.0,CHADEMO J1772COMBO,PLANNED - not yet accessible (Public),Unknown,
158038,Thickson Ridge Center,1629 Victoria St,Whitby,Ontario,43.8656864,-78.9021249,Non-Networked,2,0.0,CHADEMO J1772COMBO,PLANNED - not yet accessible (Public),Unknown,
204525,AURA Thickson Ridge - Whitby,1635 Victoria St E,Whitby,Ontario,43.866737,-78.900791,FLO,3,0.0,CHADEMO J1772COMBO,Public,24 hours daily,2022-01-08
158066,Canadian Tire,155 Consumers Dr,Whitby,Ontario,43.8669112,-78.9297082,Non-Networked,1,0.0,CHADEMO J1772COMBO,PLANNED - not yet accessible (Public),Unknown,
122254,CF Markville Shopping Centre - Tesla Supercharger,5000 Highway 7,Markham,Ontario,43.867494,-79.285718,Tesla,20,0.0,TESLA,Public,24 hours daily; for Tesla use only,2019-03-01
129565,FLO - Cadillac Fairview - Markville Mall,5000 Hwy 7,Markham,Ontario,43.868027,-79.28659,FLO,1,2.0,CHADEMO J1772 J1772COMBO,Public,24 hours daily,2019-07-17
163116,CALEDON ABUCC,150 Queen St S,Caledon,Ontario,43.875927,-79.735271,ChargePoint Network,1,0.0,CHADEMO J1772COMBO,TEMPORARILY UNAVAILABLE (Public),24 hours daily,2020-06-12
211939,Transit: 40592 Markham,101 Main Street,Markham,Ontario,43.877837,-79.260488,EV Connect,1,0.0,CHADEMO J1772COMBO,Public,Unknown,2022-03-17
156668,SmartCenters Oshawa South,680 Laval Dr,Oshawa,Ontario,43.881444,-78.882131,Non-Networked,3,0.0,CHADEMO J1772COMBO,PLANNED - not yet accessible (Public),Unknown,
210210,Shell Canada Ltd,9270 Mccowan Rd,Markham,Ontario,43.88562344,-79.28968207,Non-Networked,2,0.0,Unknown,PLANNED - not yet accessible (Public),Unknown,
189164,Oshawa Mid,441 Gibb St,Oshawa,Ontario,43.88633,-78.877,Electrify Canada,4,0.0,CHADEMO J1772COMBO,Public,24 hours daily,2021-05-04
157857,Canadian Tire,2900 Major Mackenzie Dr E,Markham,Ontario,43.88651,-79.37172,Non-Networked,2,0.0,CHADEMO J1772COMBO,PLANNED - not yet accessible (Public),Unknown,
158035,Oshawa Power and Utilities Corp,100 Simcoe St S,Oshawa,Ontario,43.8950188,-78.8627919,Non-Networked,3,0.0,CHADEMO J1772COMBO,PLANNED - not yet accessible (Public),Unknown,
209375,Ontario Charging Network,12001 Hwy 400 Northbound,King City,Ontario,43.89518401,-79.55688475,Non-Networked,4,0.0,Unknown,PLANNED - not yet accessible (Public),Unknown,
99130,Veridian Connections Inc,55 Taunton Rd. East,Ajax,Ontario,43.895598,-79.038773,SHELL_RECHARGE,1,2.0,CHADEMO J1772 J1772COMBO,Public,24 hours daily,2018-06-14
158033,Oshawa City Hall,45 Queen St,Oshawa,Ontario,43.895977,-78.8663522,Non-Networked,3,0.0,CHADEMO J1772COMBO,PLANNED - not yet accessible (Public),Unknown,
210144,Oshawa Power and Utilities Corp,45 Queen Street,Oshawa,Ontario,43.89606,-78.86638,Non-Networked,3,0.0,Unknown,PLANNED - not yet accessible (Public),Unknown,
158034,Ontario Tech University,61 Charles St,Oshawa,Ontario,43.8973868,-78.8579746,Non-Networked,3,0.0,CHADEMO J1772COMBO,PLANNED - not yet accessible (Public),Unknown,
210195,Shell Canada Ltd,985 Bowmanville Avenue,Bowmanville,Ontario,43.89742344,-78.69000663,Non-Networked,2,0.0,Unknown,PLANNED - not yet accessible (Public),Unknown,
223654,Shell Canada Limited,985 Bowmanville Ave,Bowmanville,Ontario,43.89742344,-78.69000663,Non-Networked,1,0.0,Unknown,PLANNED - not yet accessible (Public),Unknown,
158046,Baseload Power Corp,10755 Leslie St,Richmond Hill,Ontario,43.899441,-79.3956036,Non-Networked,2,0.0,CHADEMO J1772COMBO,PLANNED - not yet accessible (Public),Unknown,
158032,Superior Court of Justice Oshawa,74 Carriage Works Dr,Oshawa,Ontario,43.8997756,-78.8590917,Non-Networked,3,0.0,CHADEMO J1772COMBO,PLANNED - not yet accessible (Public),Unknown,
158056,The Ontario Court of Justice,55 Zina St,Orangeville,Ontario,43.9193267,-80.1034557,Non-Networked,1,4.0,CHADEMO J1772 J1772COMBO,Public,24 hours daily,2021-12-01
201650,Courthouse - Orangeville,44 Elizabeth Street,Orangeville,Ontario,43.919636,-80.103688,FLO,1,4.0,CHADEMO J1772 J1772COMBO,Public,24 hours daily,2021-11-26
200546,Fairgrounds Centre - Tesla Supercharger,95 First Street,Orangeville,Ontario,43.929099,-80.098174,Tesla,8,0.0,TESLA,Public,24 hours daily; for Tesla use only,2021-10-11
88680,Transit: 78956 King City,1700 King Road,King City,Ontario,43.93194,-79.513571,EV Connect,1,0.0,CHADEMO J1772COMBO,Public,Unknown,2017-06-01
157858,Canadian Tire Oshawa North,1333 Wilson Rd N,Oshawa,Ontario,43.9369,-78.85757,Non-Networked,2,0.0,CHADEMO J1772COMBO,PLANNED - not yet accessible (Public),Unknown,
220733,Ivy - ONroute Port Hope,845 ON-401 Eastbound,Campbellcroft,Ontario,43.9424351,-78.43041806,IVY,4,0.0,CHADEMO J1772COMBO,Public - Credit card at all times,24 hours daily,2022-05-31
158064,Founders Lot 3,40 Conlin Rd,Oshawa,Ontario,43.9478037,-78.8990724,Non-Networked,3,0.0,CHADEMO J1772COMBO,PLANNED - not yet accessible (Public),Unknown,
158065,Ontario Tech University,Founders 5 Parking Lot,Oshawa,Ontario,43.9480206,-78.8989126,Non-Networked,3,0.0,CHADEMO J1772COMBO,PLANNED - not yet accessible (Public),Unknown,
210149,Oshawa Power and Utilities Corp,40 Conlin Road,Oshawa,Ontario,43.948383,-78.89443,Non-Networked,3,0.0,Unknown,PLANNED - not yet accessible (Public),Unknown,
210150,Oshawa Power and Utilities Corp,2200 Simcoe Street North (Founders 5 parking lot beside ICE Center),Oshawa,Ontario,43.95056,-78.89821,Non-Networked,3,0.0,Unknown,PLANNED - not yet accessible (Public),Unknown,
87746,Quantrill Chevrolet,265 Peter St,Port Hope,Ontario,43.954281,-78.267775,Non-Networked,1,0.0,J1772COMBO,Public,"8am-8pm Mon-Thur, 8AM-6pm Fri, 8am-5pm Sat",2017-12-31
158037,Oshawa Power and Utilities Corp,Conlin Rd E & Wilson Rd N,Oshawa,Ontario,43.9544973,-78.8667923,Non-Networked,3,0.0,CHADEMO J1772COMBO,PLANNED - not yet accessible (Public),Unknown,
209380,Ontario Charging Network,845 Hwy 401 Eastbound,Port Hope,Ontario,43.96432,-78.27279,Non-Networked,4,0.0,Unknown,PLANNED - not yet accessible (Public),Unknown,
220082,EVCO OFF NETWORK 6,2 Brown Street South,Minto,Ontario,43.970459,-80.977081,ChargePoint Network,1,0.0,CHADEMO J1772COMBO,TEMPORARILY UNAVAILABLE (Public),24 hours daily,2022-05-27
83973,Port Hope Travel Center - Tesla Supercharger,6498 Telephone Rd.,Port Hope,Ontario,43.971602,-78.285397,Tesla,8,0.0,TESLA,Public,24 hours daily; for Tesla use only,2015-12-15
155358,Petro-Canada EV Fast Charger,490 White St,Cobourg,Ontario,43.977902,-78.194677,PETROCAN,2,0.0,CHADEMO J1772COMBO,Public,24 hours daily,2020-03-01
202646,Canadian Tire - Tesla Supercharger,101 Mt. Forest Dr,Mt. Forest,Ontario,43.98812624,-80.74342503,Tesla,8,0.0,TESLA,Public - Credit card at all times,24 hours daily,2021-12-10
157809,On the Run,8786 Highway 115 S,Orono,Ontario,44.0046519,-78.6503076,Non-Networked,2,0.0,CHADEMO J1772COMBO,PLANNED - not yet accessible (Public),Unknown,
157866,Ontario Charging Network LP-Home Depot,15360 Bayview Ave,Aurora,Ontario,44.00734,-79.447,Non-Networked,2,0.0,CHADEMO J1772COMBO,PLANNED - not yet accessible (Public),Unknown,
163117,PRINCE EDWARD STATION 1,55 King St,Picton,Ontario,44.008342,-77.143285,ChargePoint Network,1,0.0,CHADEMO J1772COMBO,TEMPORARILY UNAVAILABLE (Public),24 hours daily,2020-06-12
129572,Sobeys Liverpool,180 Bristol Ave,Liverpool,Nova Scotia,44.047045,-64.721991,FLO,1,1.0,CHADEMO J1772 J1772COMBO,Public,24 hours daily,2019-07-17
180422,NEWMARKET VW CPE100,16885 Leslie St,Newmarket,Ontario,44.05068,-79.427167,ChargePoint Network,1,0.0,J1772COMBO,Public,24 hours daily,2021-01-27
157856,Ontario Charging Network LP,17750 Yonge St,Newmarket,Ontario,44.0597,-79.48368,Non-Networked,2,0.0,CHADEMO J1772COMBO,PLANNED - not yet accessible (Public),Unknown,
158043,404 Town Centre,1111 Davis Dr,Newmarket,Ontario,44.0674895,-79.4305015,Non-Networked,2,0.0,CHADEMO J1772COMBO,PLANNED - not yet accessible (Public),Unknown,
157865,Ontario Charging Network LP-Home Depot,470 Holland St W,Bradford,Ontario,44.10645,-79.58884,Non-Networked,2,0.0,CHADEMO J1772COMBO,PLANNED - not yet accessible (Public),Unknown,
209352,Hydro One Inc,17277 Hwy 401 Eastbound,Tilbury,Ontario,44.10881334,-77.65945017,Non-Networked,2,0.0,Unknown,PLANNED - not yet accessible (Public),Unknown,
209370,Ontario Charging Network,17277 Hwy 401 Eastbound South,Brighton,Ontario,44.10961515,-77.65957072,Non-Networked,4,0.0,Unknown,PLANNED - not yet accessible (Public),Unknown,
209371,Ontario Charging Network,17278 Hwy 401 Westbound,Brighton,Ontario,44.11120219,-77.65956907,Non-Networked,4,0.0,Unknown,PLANNED - not yet accessible (Public),Unknown,
201426,Museum of Dufferin,936029 Airport Rd,Mulmur,Ontario,44.11706,-80.02563,FLO,1,0.0,CHADEMO J1772COMBO,Public,24 hours daily,2021-11-19
213110,Pebbles Restaurant,313010 ON-6,Durham,Ontario,44.1338163,-80.8120012,FLO,1,0.0,CHADEMO J1772COMBO,Public,24 hours daily,2022-03-31
157853,Ontario Charging Network LP-Canadian Tire,110 Young St,Alliston,Ontario,44.14954,-79.8841,Non-Networked,2,0.0,CHADEMO J1772COMBO,PLANNED - not yet accessible (Public),Unknown,
200553,Canadian Tire - Tesla Supercharger,811 Durham Street,Kincardine,Ontario,44.172322,-81.616349,Tesla,8,0.0,TESLA,Public,24 hours daily; for Tesla use only,2021-10-11
129573,FLO - Canadian Tire - Belleville,103 Bell Blvd,Belleville,Ontario,44.186798,-77.400017,FLO,1,2.0,CHADEMO J1772 J1772COMBO,Public,24 hours daily,2019-07-17
157686,Canadian Tire Corp,44 Livingston Ave,Grimsby,Ontario,44.18697,-77.40023,Non-Networked,2,0.0,CHADEMO J1772COMBO,PLANNED - not yet accessible (Public),Unknown,
122302,Quinte Mall - Tesla Supercharger,390 North Front Street,Belleville,Ontario,44.187864,-77.398877,Tesla,20,0.0,TESLA,Public,24 hours daily; for Tesla use only,2019-03-01
157812,Suncor,Highway 89 & 400,Cookstown,Ontario,44.1976998,-79.6650163,Non-Networked,2,0.0,CHADEMO J1772COMBO,Public,24 hours daily,2022-01-01
188146,Petro-Canada,3535 Highway 89,Cookstown,Ontario,44.198979,-79.659555,PETROCAN,2,0.0,CHADEMO J1772COMBO,Public,24 hours daily,2021-04-29
158031,Tanger Outlets Cookstown,"3311 County Rd 89, Unit A23",Innisfill,Ontario,44.1990319,-79.6514386,Non-Networked,2,0.0,CHADEMO J1772COMBO,Public,24 hours daily,2022-01-01
205888,AURA Tanger Cookstown,3311 Simcoe Rd 89,Cookstown,Ontario,44.200234,-79.649751,FLO,3,0.0,CHADEMO J1772COMBO,Public,24 hours daily,2022-02-04
139502,CoK Public - Frontenac Parking Lot,11 Queen Street,Kingston,Ontario,44.232402,-76.479451,FLO,2,2.0,CHADEMO J1772 J1772COMBO,Public,24 hours daily,2019-08-07
197080,Keswick,24270 Woodbine Ave.,Keswick,Ontario,44.235548,-79.450049,FLO,2,1.0,CHADEMO J1772 J1772COMBO,Public,24 hours daily,2021-10-02
157687,Canadian Tire Corp,24270 Woodbine Ave,Keswick,Ontario,44.235817,-79.450984,Non-Networked,2,0.0,CHADEMO J1772COMBO,PLANNED - not yet accessible (Public),Unknown,
157855,Ontario Charging Network LP-Canadian Tire,24270 Woodbine Ave,Keswick,Ontario,44.23598,-79.45037,Non-Networked,2,0.0,CHADEMO J1772COMBO,PLANNED - not yet accessible (Public),Unknown,
213362,BMW Kingston,1412 Bath Road,Kingston,Ontario,44.23805787,-76.55257089,FLO,1,0.0,CHADEMO J1772COMBO,Public,24 hours daily,2022-04-02
162998,KINGSTON VW CPE100,1670 Bath Rd,Kingston,Ontario,44.238125,-76.569503,ChargePoint Network,1,0.0,J1772COMBO,TEMPORARILY UNAVAILABLE (Public),24 hours daily,2020-06-12
88681,Transit: 4075 Kingston,660 Gardiner Road,Kingston,Ontario,44.245478,-76.567324,EV Connect,1,0.0,CHADEMO J1772COMBO,Public,Unknown,2017-06-01
211935,Ivy - ONroute Innisfil,6400 ON-400,Innisfil,Ontario,44.24608129,-79.67042023,IVY,4,0.0,CHADEMO J1772COMBO,Public - Credit card at all times,24 hours daily,2022-03-15
227142,2440 Princess Street,2440 Princess Street,Kingston,Ontario,44.259,-76.558001,FLO,1,1.0,CHADEMO J1772 J1772COMBO,Public,24 hours daily,2022-09-03
168153,Kingston Princess St. ( Canadian Tire),2560 Princess St.,KIngston,Ontario,44.26005,-76.56913,Electrify Canada,4,0.0,CHADEMO J1772COMBO,Public,24 hours daily,2020-11-05
197684,Napanee,476 Centre St N,Napanee,Ontario,44.26005,-76.96489,FLO,2,1.0,CHADEMO J1772 J1772COMBO,Public,24 hours daily,2021-10-13
203271,King's Crossing North - Tesla Supercharger,88 Dalton Ave,Kingston,Ontario,44.264946,-76.501804,Tesla,8,0.0,TESLA,Public - Credit card at all times,24 hours daily,2021-12-23
156663,Hydro One Inc,1037 Sydenham Rd,Kingston,Ontario,44.26725,-76.5447,Non-Networked,3,0.0,CHADEMO J1772COMBO,PLANNED - not yet accessible (Public),Unknown,
85163,King's Crossing Fashion Outlet Centre - Tesla Supercharger,97  Dalton Avenue,Kingston,Ontario,44.267279,-76.503377,Tesla,8,0.0,TESLA,Public,24 hours daily; for Tesla use only,2015-02-01
83233,Petro-Canada,638 County Rd 41,Napanee,Ontario,44.268417,-76.967826,PETROCAN,2,1.0,CHADEMO J1772 J1772COMBO,Public,24 hours daily,2016-06-15
158062,Mr. Gas,1141 County Rd 6,Odessa,Ontario,44.2799266,-76.7147294,Non-Networked,1,0.0,CHADEMO J1772COMBO,PLANNED - not yet accessible (Public),Unknown,
207857,Ivy - ONroute Napanee,1550 Simmons Rd,Odessa,Ontario,44.27994808,-76.80367202,IVY,4,0.0,CHADEMO J1772COMBO,Public - Credit card at all times,24 hours daily,2022-03-07
216418,1189 Lansdowne Street West,1189 Lansdowne Street West,Peterborough,Ontario,44.280181,-78.350614,FLO,1,3.0,CHADEMO J1772 J1772COMBO,Public,24 hours daily,2022-04-29
83232,Petro-Canada,1586 Centennial Dr,Kingston,Ontario,44.280454,-76.570333,PETROCAN,2,1.0,CHADEMO J1772 J1772COMBO,Public,24 hours daily,2015-03-15
227727,Tim Hortons,1144 Lansdowne St W,Peterborough,Ontario,44.28103884,-78.34996558,IVY,4,0.0,CHADEMO J1772COMBO,Public - Credit card at all times,24 hours daily,2022-09-13
156667,Ivy - Peterborough,1144 Lansdowne St W,Peterborough,Ontario,44.28107292,-78.35017839,IVY,2,0.0,CHADEMO J1772COMBO,PLANNED - not yet accessible (Public - Credit card at all times),24 hours daily; Also accepts in-app payment,
165582,Lansdowne Place - Tesla Supercharger,645 Lansdowne Street West,Peterborough,Ontario,44.283163,-78.333186,Tesla,8,0.0,TESLA,Public,24 hours daily; for Tesla use only,2020-08-10
207858,Ivy - ONroute Odessa,3745 Hwy 401,Odessa,Ontario,44.2836657,-76.65777726,IVY,4,0.0,CHADEMO J1772COMBO,Public - Credit card at all times,24 hours daily,2022-03-07
129593,Peterborough - Lansdowne Mall,645 Lansdowne St,Peterborough,Ontario,44.283849,-78.331762,FLO,1,1.0,CHADEMO J1772 J1772COMBO,Public,24 hours daily,2019-07-17
210205,Shell Canada Ltd,2098 Commerce Park Dr,Innisfil,Ontario,44.28615834,-79.67255666,Non-Networked,2,0.0,Unknown,PLANNED - not yet accessible (Public),Unknown,
223564,1053 Clonsilla Avenue,1053 Clonsilla Avenue,Peterborough,Ontario,44.290857,-78.34491,FLO,1,1.0,CHADEMO J1772 J1772COMBO,Public,24 hours daily,2022-07-16
209349,Hydro One Inc,1550 North Simmons Road,North Odessa,Ontario,44.29948279,-76.74587912,Non-Networked,4,0.0,Unknown,PLANNED - not yet accessible (Public),Unknown,
223637,Hydro One Inc.,1550 North Simmons Rd,North Odessa,Ontario,44.29948279,-76.74587912,Non-Networked,1,0.0,Unknown,PLANNED - not yet accessible (Public),Unknown,
189160,Barrie South ( Canadian Tire),75 Maple view Drive W,Barrie,Ontario,44.33319,-79.69172,Electrify Canada,4,0.0,CHADEMO J1772COMBO,Public,24 hours daily,2021-05-04
99194,Lindsay Recreation Complex,133 Adelaide St,Lindsay,Ontario,44.340826,-78.744536,SHELL_RECHARGE,1,0.0,CHADEMO J1772COMBO,Public,24 hours daily,2018-06-14
85109,Park Place - Tesla Supercharger,100 Mapleview Drive East,Barrie,Ontario,44.341123,-79.678975,Tesla,8,0.0,TESLA,Public,24 hours daily; for Tesla use only,2015-02-01
169664,ChargeLab - Hill Island,Highway 137 #839 Hill Island,Lansdowne,Ontario,44.34913344,-75.98540343,CHARGELAB,1,0.0,CHADEMO J1772COMBO,TEMPORARILY UNAVAILABLE (Public - Credit card at all times),24 hours daily,2019-09-09
84549,Tim Horton's,1527 Water St,Peterborough,Ontario,44.3508257,-78.3013815,Non-Networked,1,0.0,CHADEMO J1772COMBO,Public,24 hours daily,2017-05-15
209369,Ontario Charging Network,201 Fairview Road,Barrie,Ontario,44.35197341,-79.68721515,Non-Networked,4,0.0,Unknown,PLANNED - not yet accessible (Public),Unknown,
158045,Zehrs,11 Bryne Dr,Barrie,Ontario,44.3582547,-79.6949349,Non-Networked,2,0.0,CHADEMO J1772COMBO,PLANNED - not yet accessible (Public),Unknown,
180420,BARRIE VW CPE100,60 Fairview Rd,Barrie,Ontario,44.359273,-79.692718,ChargePoint Network,1,0.0,J1772COMBO,TEMPORARILY UNAVAILABLE (Public),24 hours daily,2021-01-27
156671,Hydro One Inc,306 Tiffin St,Barrie,Ontario,44.374362,-79.712894,Non-Networked,3,0.0,CHADEMO J1772COMBO,PLANNED - not yet accessible (Public),Unknown,
129598,Peterborough - Norwood Foodland,4 County Rd 40 #40,Norwood,Ontario,44.382074,-77.980334,FLO,1,1.0,CHADEMO J1772 J1772COMBO,Public,24 hours daily,2019-07-17
129599,Best Western Bridgewater,527 Highway 10,Cookville,Nova Scotia,44.400417,-64.539273,FLO,1,0.0,CHADEMO J1772COMBO,Public,24 hours daily,2019-07-17
122314,SmartCentres Barrie North - Tesla Supercharger,450 Bayfield St,Barrie,Ontario,44.410803,-79.709357,Tesla,20,0.0,TESLA,Public,24 hours daily; for Tesla use only,2019-03-01
153619,Petro-Canada EV Fast Charger,175 Cundles Rd E,Barrie,Ontario,44.41103991,-79.68905791,PETROCAN,2,0.0,CHADEMO J1772COMBO,Public,24 hours daily,2020-01-01
154189,1 Georgian Drive,1 Georgian Drive,Barrie,Ontario,44.4145,-79.667596,FLO,1,4.0,CHADEMO J1772 J1772COMBO,Public,24 hours daily,2020-02-29
99266,County of Simcoe - Stayner,212 Huron St,Stayner,Ontario,44.419607,-80.087289,SHELL_RECHARGE,1,0.0,CHADEMO J1772COMBO,Public,24 hours daily,2018-06-14
88673,Tim Horton's,50 Ottawa St W,Havelock,Ontario,44.433386,-77.893121,Non-Networked,1,0.0,CHADEMO J1772COMBO,Public,24 hours daily,2017-06-01
118055,County of Simcoe - Museum,1151 Highway 26,Minesing,Ontario,44.444431,-79.748559,SHELL_RECHARGE,1,0.0,CHADEMO J1772COMBO,Public,24 hours daily,2019-02-16
208807,ChargerCrew Canada Inc,1224 Highway #21,Port Elgin,Ontario,44.451756,-81.377065,Non-Networked,1,0.0,Unknown,PLANNED - not yet accessible (Public),Unknown,
157854,Ontario Charging Network LP Canadian Tire,75 45th St S,Wasaga Beach,Ontario,44.47175,-80.07383,Non-Networked,2,0.0,CHADEMO J1772COMBO,PLANNED - not yet accessible (Public),Unknown,
158071,Real Canadian Superstore,25 45th St S,Wasaga Beach,Ontario,44.4730007,-80.073922,Non-Networked,1,0.0,CHADEMO J1772COMBO,PLANNED - not yet accessible (Public),Unknown,
209345,Hydro One Inc,678 Hwy 401 Westbound,Mallorytown,Ontario,44.48952963,-75.85499526,Non-Networked,4,0.0,Unknown,PLANNED - not yet accessible (Public),Unknown,
223639,Hydro One Inc.,678 Hwy 401 Westbound,Mallorytown,Ontario,44.48952963,-75.85499526,Non-Networked,1,0.0,Unknown,PLANNED - not yet accessible (Public),Unknown,
85129,Tim Horton's,501 Hume St,Collingwood,Ontario,44.499925,-80.196829,Non-Networked,1,0.0,CHADEMO J1772COMBO,Public,24 hours daily,2017-05-15
202927,Pine Street Parking Lot,28 Second Street,Collingwood,Ontario,44.50072,-80.218219,FLO,2,4.0,CHADEMO J1772 J1772COMBO,Public,24 hours daily,2021-12-22
158057,100 Pine Street Garage,101 Pine St,Collingwood,Ontario,44.5007687,-80.2169047,Non-Networked,2,0.0,CHADEMO J1772COMBO,PLANNED - not yet accessible (Public),Unknown,
157829,Canadian Tire Corp,69 Balsam St,Collingwood,Ontario,44.50322,-80.23571,Non-Networked,3,0.0,CHADEMO J1772COMBO,Public,24 hours daily,2022-01-01
201462,Collingwood,89 Balsam St,Collingwood,Ontario,44.50322,-80.23571,FLO,3,1.0,CHADEMO J1772 J1772COMBO,Public,24 hours daily,2021-11-20
156684,Hydro One Inc,Highway 37 W,Kaladar,Ontario,44.505555,-77.321388,Non-Networked,2,0.0,CHADEMO J1772COMBO,PLANNED - not yet accessible (Public),Unknown,
221869,Ivy - ONroute Mallorytown South,680 Highway 401,Mallorytown,Ontario,44.50591754,-75.83534089,IVY,8,0.0,CHADEMO J1772COMBO,Public - Credit card at all times,24 hours daily,2022-06-10
209346,Hydro One Inc,680 Hwy 401 Eastbound,Mallorytown,Ontario,44.50676537,-75.81231009,Non-Networked,4,0.0,Unknown,PLANNED - not yet accessible (Public),Unknown,
223638,Hydro One Inc.,680 Hwy 401 Eastbound,Mallorytown,Ontario,44.50676537,-75.81231009,Non-Networked,1,0.0,Unknown,PLANNED - not yet accessible (Public),Unknown,
200548,Cranberry Mews - Tesla Supercharger,10 Keith Avenue,Collingwood,Ontario,44.508279,-80.238136,Tesla,8,0.0,TESLA,Public,24 hours daily; for Tesla use only,2021-10-11
158059,Canadian Tire Corp,12329 County Rd,Morrisburg,Ontario,44.5430058,-75.7556691,Non-Networked,1,0.0,CHADEMO J1772COMBO,PLANNED - not yet accessible (Public),Unknown,
201282,Owen Sound Volkswagen,202391 ON-21,Owen Sound,Ontario,44.55809574,-80.97708356,ChargePoint Network,1,0.0,J1772COMBO,Public - Credit card at all times,24 hours daily,2021-11-04
231062,Transit: 12062 Owen Sound,857 2nd Avenue East,Owen Sound,Ontario,44.565258,-80.94233,EV Connect,1,0.0,CHADEMO J1772COMBO,TEMPORARILY UNAVAILABLE (Public),Unknown,2022-09-30
94473,Scotiabank,857 2nd Ave E,Owen Sound,Ontario,44.565289,-80.941981,Non-Networked,1,0.0,CHADEMO J1772COMBO,TEMPORARILY UNAVAILABLE (Public),24 hours daily,2017-08-01
156675,Ivy - Owen Sound,955 9th Ave E,Owen Sound,Ontario,44.56876185,-80.92724929,IVY,2,0.0,CHADEMO J1772COMBO,Public,24 hours daily,2020-05-21
122317,SmartCentres Owen Sound - Tesla Supercharger,1555 18th Avenue East,Owen Sound,Ontario,44.574169,-80.912222,Tesla,8,0.0,TESLA,Public,24 hours daily; for Tesla use only,2019-03-01
151976,Petro-Canada EV Fast Charger,325 Stewart Blvd,Brockville,Ontario,44.6006749,-75.7032006,PETROCAN,2,0.0,CHADEMO J1772COMBO,Public,24 hours daily,2019-12-01
167050,Brockville,2360 Parkedale Ave,Brockville,Ontario,44.60551,-75.69847,Electrify Canada,4,0.0,CHADEMO J1772COMBO,Public,24 hours daily,2020-09-24
157864,Ontario Charging Network LP Home Depot,3225 Monarch Dr,Orillia,Ontario,44.60788,-79.45183,Non-Networked,2,0.0,CHADEMO J1772COMBO,PLANNED - not yet accessible (Public),Unknown,
158063,Real Canadian Superstore,1972 Parkdale Ave,Brockville,Ontario,44.6140249,-75.6887651,Non-Networked,1,0.0,CHADEMO J1772COMBO,PLANNED - not yet accessible (Public),Unknown,
129604,Sobeys Digby,110 Warwick,Digby,Nova Scotia,44.6156803,-65.7656538,FLO,1,1.0,CHADEMO J1772 J1772COMBO,Public,24 hours daily,2019-07-17
155361,Petro-Canada EV Fast Charger,231 Herring Cove Rd,Halifax,Nova Scotia,44.62123,-63.61785,PETROCAN,2,0.0,CHADEMO J1772COMBO,Public - Credit card at all times,24 hours daily,2020-03-01
197081,Orillia,1017 Brodie Drive,Orillia,Ontario,44.630791,-79.436327,FLO,1,1.0,CHADEMO J1772 J1772COMBO,Public,24 hours daily,2021-10-02
201283,Privateers Harley-Davidson,74 Halifax Dr,Halifax,Nova Scotia,44.63857072,-63.67458124,ChargePoint Network,1,0.0,J1772COMBO,Public - Credit card at all times,24 hours daily,2021-11-04
129605,FLO - Atlantic Superstore,1075 Barrington Street,Halifax,Nova Scotia,44.638664,-63.56967,FLO,1,0.0,CHADEMO J1772COMBO,Public,24 hours daily,2019-07-17
190385,O'Regan's Nissan Halifax,3461 Kempt Rd,Halifax,Nova Scotia,44.66239606,-63.61336204,FLO,1,0.0,CHADEMO J1772COMBO,Public,24 hours daily,2021-05-29
130164,DCFC - Prescott,2881 Prescott Centre Dr,Prescott,Ontario,44.721559,-75.52285,Circuit électrique,1,0.0,CHADEMO J1772COMBO,Public,24 hours daily,2019-07-17
85185,Tim Horton's,16815 Highway 12,Midland,Ontario,44.729823,-79.873715,Non-Networked,1,0.0,CHADEMO J1772COMBO,Public - Credit card at all times,24 hours daily,2017-05-15
208809,ChargerCrew Canada Inc,579 Berford Street,Wiarton,Ontario,44.742768,-81.140554,Non-Networked,1,0.0,Unknown,PLANNED - not yet accessible (Public),Unknown,
166239,County of Simcoe - Washago,8341 Simcoe County Rd 169,Washago,Ontario,44.752979,-79.338417,SHELL_RECHARGE,1,0.0,CHADEMO J1772COMBO,Public,24 hours daily,2020-09-08
158060,Husky/Esso,2025 ON-44,Spencerville,Ontario,44.7600977,-75.4828015,Non-Networked,1,0.0,CHADEMO J1772COMBO,PLANNED - not yet accessible (Public),Unknown,
94475,Transit: 40782 Penetanguishene,135 Main Street,Penetanguishene,Ontario,44.766964,-79.931511,EV Connect,1,0.0,CHADEMO J1772COMBO,Public,Unknown,2017-08-01
156669,Hydro One Inc,2820 Quarry Rd,Waubaushene,Ontario,44.77996,-79.66809,Non-Networked,3,0.0,CHADEMO J1772COMBO,PLANNED - not yet accessible (Public),Unknown,
180467,GG TRAVEL PLAZA DC 1,35 Lone Pine Rd,Coldwater,Ontario,44.805886,-79.735155,ChargePoint Network,1,0.0,CHADEMO J1772COMBO,Public,24 hours daily,2021-01-27
227726,Township Of Georgian Bay,99 Lone Pine Rd,Georgian Bay,Ontario,44.80774965,-79.73635988,IVY,4,0.0,CHADEMO J1772COMBO,Public - Credit card at all times,24 hours daily,2022-09-13
94484,Transit: 20982 Smith Falls,92 Lombard St,Smith Falls,Ontario,44.893312,-76.029635,EV Connect,1,0.0,CHADEMO J1772COMBO,Public,Unknown,2017-08-01
165187,Ivy - Gravenhurst,155 Edward St,Gravenhurst,Ontario,44.90751417,-79.37009902,IVY,3,0.0,CHADEMO J1772COMBO,Public - Credit card at all times,24 hours daily; Also accepts in-app payment,2020-07-07
85143,Tim Horton's,150 Talisman Dr,Gravenhurst,Ontario,44.908049,-79.368723,Non-Networked,1,0.0,CHADEMO J1772COMBO,Public,24 hours daily,2017-05-15
165581,Perth Mews Shopping Centre - Tesla Supercharger,80 Dufferin St,Perth,Ontario,44.908464,-76.266222,Tesla,8,0.0,TESLA,Public,24 hours daily; for Tesla use only,2020-08-10
156665,Hydro One Inc,99 Drummond St W,Perth,Ontario,44.9116641,-76.26088,Non-Networked,2,0.0,CHADEMO J1772COMBO,PLANNED - not yet accessible (Public),Unknown,
149307,"Enfield, NS - Tesla Supercharger",6757 Highway 2,Enfield,Nova Scotia,44.926717,-63.536376,Tesla,8,0.0,TESLA,Public,24 hours daily; for Tesla use only,2019-09-30
221868,Ivy - ONroute Morrisburg,754 ON-401,Morrisburg,Ontario,44.94459633,-75.12883286,IVY,3,0.0,CHADEMO J1772COMBO,Public - Credit card at all times,24 hours daily,2022-06-10
209344,Hydro One Inc,764 Hwy 401 Westbound,Ingleside,Ontario,44.97165185,-75.0777894,Non-Networked,3,0.0,Unknown,PLANNED - not yet accessible (Public),Unknown,
207859,Ivy - ONroute Ingleside,764 Highway 101 Westbound,Ingleside,Ontario,44.97176629,-75.08167068,IVY,2,0.0,CHADEMO J1772COMBO,Public - Credit card at all times,24 hours daily,2022-03-07
129608,Sobeys Elmsdale,267 Route NS 214,Elmsdale,Nova Scotia,44.976079,-63.50715,FLO,1,1.0,CHADEMO J1772 J1772COMBO,Public,24 hours daily,2019-07-17
156682,Hydro One Inc,1726 Winhara Rd,Gravenhurst,Ontario,44.9925,-79.30921,Non-Networked,3,0.0,CHADEMO J1772COMBO,PLANNED - not yet accessible (Public),Unknown,
170160,BRCC - Lacolle - Hôtel St-Bernard,115 Chemin Guay,Saint-Bernard-de-Lacolle,Quebec,45.0158,-73.4521,Circuit électrique,4,0.0,CHADEMO J1772COMBO,Public,24 hours daily,2020-12-15
130166,DCFC - St-Hubert - Cornwall,705 Brookdale Avenue,Cornwall,Ontario,45.022218,-74.746758,Circuit électrique,1,0.0,CHADEMO J1772COMBO,Public,24 hours daily,2019-07-17
130167,DCFC - Solacity - Kemptville,825 Van Buren St,Kemptville,Ontario,45.023078,-75.619535,Circuit électrique,1,1.0,CHADEMO J1772 J1772COMBO,Public,24 hours daily,2019-07-17
130168,BRCC - Ville de Stanstead,14 Chemin de Fairfax,Stanstead,Quebec,45.023259,-72.086202,Circuit électrique,2,0.0,CHADEMO J1772COMBO,Public,24 hours daily,2019-07-17
83919,Ramada Cornwall - Tesla Supercharger,805 Brookdale Avenue,Cornwall,Ontario,45.023716,-74.748123,Tesla,6,0.0,TESLA,Public,24 hours daily; for Tesla use only,2014-09-01
158061,Canadian Tire Corp,311 Ryans Well Dr,Kemptville,Ontario,45.0284392,-75.6340751,Non-Networked,1,0.0,CHADEMO J1772COMBO,PLANNED - not yet accessible (Public),Unknown,
191094,BRCC - Franklin - Hôtel de ville,1670 route 202,Franklin,Quebec,45.029,-73.9247,Circuit électrique,2,0.0,CHADEMO J1772COMBO,Public,24 hours daily,2021-06-17
191004,Franklin Town Hall,1670 route 202,Franklin,Quebec,45.029054,-73.924294,Non-Networked,1,0.0,CHADEMO J1772COMBO,Public,24 hours daily,2021-03-15
226552,Canadian Tire - Tesla Supercharger,311 Ryans Well Dr,Kemptville,Ontario,45.02923457,-75.63368639,Tesla,8,0.0,TESLA,Public - Credit card at all times,24 hours daily,2022-08-18
156664,Ivy - Kemptville,309 Colonnade Dr,Kemptville,Ontario,45.02957639,-75.63405486,IVY,2,0.0,CHADEMO J1772COMBO,Public - Credit card at all times,24 hours daily; Also accepts in-app payment,2020-08-11
194175,Cornwall,201- 9th Street East,Cornwall,Ontario,45.03008,-74.73192,Electrify Canada,4,0.0,CHADEMO J1772COMBO,Public,24 hours daily,2021-08-23
156662,Hydro One Inc,2900 Power Dam Dr,Cornwall,Ontario,45.0406749,-74.797032,Non-Networked,3,0.0,CHADEMO J1772COMBO,PLANNED - not yet accessible (Public),Unknown,
224185,Irving Oil - Tesla Supercharger,5477 Prospect Rd,New Minas,Nova Scotia,45.056877,-64.469561,Tesla,8,0.0,TESLA,Public - Credit card at all times,24 hours daily,2022-07-16
129612,Glooscap Ventures,45 Sweetgrass Road,Lockhartville,Nova Scotia,45.067338,-64.22108,FLO,1,1.0,CHADEMO J1772 J1772COMBO,Public,24 hours daily,2019-07-17
129613,Fast Fuel Coldbrook,7203 Nova Scotia Trunk 1,Coldbrook,Nova Scotia,45.068139,-64.56513,FLO,1,1.0,CHADEMO J1772 J1772COMBO,Public,24 hours daily,2019-07-17
158323,NB Power,24 Reed Ave,Saint Andrews,New Brunswick,45.0803574,-67.058838,Non-Networked,1,0.0,CHADEMO,Public,24 hours daily,2020-03-01
155475,NBP - St. Andrews,24 Reed Street,St. Andrews,New Brunswick,45.081287,-67.058379,eCharge Network,1,1.0,CHADEMO J1772 J1772COMBO,Public,24 hours daily,2020-04-21
205093,BRCC - Venise-en-Québec - Marché Public,245 ave. Venise Ouest,Venise-en-Québec,Quebec,45.0837,-73.1506,Circuit électrique,2,0.0,CHADEMO J1772COMBO,Public,24 hours daily,2022-01-20
200549,Canadian Tire - Tesla Supercharger,341 Hastings Street North,Bancroft,Ontario,45.084215,-77.861457,Tesla,8,0.0,TESLA,Public,24 hours daily; for Tesla use only,2021-10-11
154461,BRCC - Caisse Desjardins du Haut-Saint-Laurent CdS Huntingdon,"8, Rue Prince",Huntingdon,Quebec,45.0867564,-74.1744162,Circuit électrique,2,0.0,CHADEMO J1772COMBO,Public,24 hours daily,2020-03-13
164811,Acadia Athletics Complex,550 Main Street,Wolfville,Nova Scotia,45.090833,-64.36925,FLO,1,0.0,CHADEMO J1772COMBO,Public,24 hours daily,2020-08-02
196095,BRCC - Sutton - Stationnement Principale Nord,16 rue Principale Nord,Sutton,Quebec,45.1076,-72.615,Circuit électrique,2,0.0,CHADEMO J1772COMBO,Public,24 hours daily,2021-09-18
210414,Tous les jours,"35, Principale Nord",Sutton,Quebec,45.10851659,-72.61720133,Non-Networked,2,0.0,Unknown,PLANNED - not yet accessible (Public),Unknown,
158202,IGA,35 Principale Nord,Sutton,Quebec,45.108661,-72.616755,Non-Networked,2,0.0,CHADEMO J1772COMBO,PLANNED - not yet accessible (Public),Unknown,
165188,Ivy - Carleton Place,10418 ON-7,Carleton Place,Ontario,45.132451,-76.120819,IVY,2,0.0,CHADEMO J1772COMBO,Public - Credit card at all times,24 hours daily; Also accepts in-app payment,2020-06-26
130186,BRCC - Ville de Coaticook,116 rue Wellington,Coaticook,Quebec,45.133125,-71.803409,Circuit électrique,2,2.0,CHADEMO J1772 J1772COMBO,Public,24 hours daily,2019-07-17
217162,BRCC - Coaticook - Aréna - Laurence,"29, Rue Laurence",Coaticook,Quebec,45.133622,-71.800005,Circuit électrique,2,0.0,CHADEMO J1772COMBO,Public,24 hours daily,2022-05-07
87670,Transit: 50146 Carleton Place,85 Bridge St,Carleton Place,Ontario,45.138936,-76.144094,EV Connect,1,0.0,CHADEMO J1772COMBO,Public,Unknown,2017-06-01
163506,Petro-Canada EV Fast Charger,81 Main St W,Stewiacke,Nova Scotia,45.139413,-63.360521,PETROCAN,2,0.0,CHADEMO J1772COMBO,Public,24 hours daily,2020-06-01
130194,150 rue Tyler,150 rue Tyler,Ayer's Cliff,Quebec,45.168051,-72.038764,Circuit électrique,2,2.0,CHADEMO J1772 J1772COMBO,Public,24 hours daily,2019-07-17
145729,NBP - IOL Lepreau Village Road,7386 Lepreau Village Road,Lepreau,New Brunswick,45.172731,-66.464529,eCharge Network,1,1.0,CHADEMO J1772 J1772COMBO,Public,24 hours daily,2018-03-29
143942,BRCC - Napierville - Desjardins,373 rue Saint-Jacques,Napierville,Quebec,45.1878,-73.407,Circuit électrique,2,1.0,CHADEMO J1772 J1772COMBO,Public,24 hours daily,2019-08-21
130195,779 boul. Jean-Jacques-Bertrand,779 boul. Jean-Jacques-Bertrand,Cowansville,Quebec,45.189518,-72.75244,Circuit électrique,1,1.0,CHADEMO J1772 J1772COMBO,Public,24 hours daily,2019-07-17
155474,NBP - St. Stephen,22 Budd Avenue,St. Stephen,New Brunswick,45.193045,-67.274172,eCharge Network,1,1.0,CHADEMO J1772 J1772COMBO,Public,24 hours daily,2020-04-21
167729,BRCC - Lac-Brôme - Shell,"1059, Chemin Knowlton",West Brome,Quebec,45.198435,-72.66359,Circuit électrique,2,0.0,CHADEMO J1772COMBO,Public,24 hours daily,2020-10-23
220734,Ivy - ONroute Bainsville,22064 N Service Rd,Bainsville,Ontario,45.20261212,-74.36263766,IVY,4,0.0,CHADEMO J1772COMBO,Public - Credit card at all times,24 hours daily,2022-05-31
130202,BRCC - Aire de service  - Rivière-Beaudette,"100, Autoroute 20",Rivière-Beaudette,Quebec,45.212512,-74.338789,Circuit électrique,2,1.0,CHADEMO J1772 J1772COMBO,Public,24 hours daily,2019-07-17
196085,BRCC - Rivière Beaudette - Principale,615 rue Principale,Rivière Beaudette,Quebec,45.219821,-74.32225,Circuit électrique,2,0.0,CHADEMO J1772COMBO,Public,24 hours daily,2021-09-18
208808,ChargerCrew Canada Inc,7357 Highway 6,Tobermory,Ontario,45.248312,-81.659208,Non-Networked,1,0.0,Unknown,PLANNED - not yet accessible (Public),Unknown,
210418,Tous les jours,"810, rue St-Paul",st-Rémi,Quebec,45.25747768,-73.60845632,Non-Networked,2,0.0,Unknown,PLANNED - not yet accessible (Public),Unknown,
158204,IGA,810 rue St-Paul,St-Remi,Quebec,45.257534,-73.608882,Non-Networked,2,0.0,CHADEMO J1772COMBO,PLANNED - not yet accessible (Public),Unknown,
231057,Transit: 90316 Russell,1116 Consession Street,Russell,Ontario,45.257657,-75.358871,EV Connect,1,0.0,CHADEMO J1772COMBO,TEMPORARILY UNAVAILABLE (Public),Unknown,2022-09-30
147485,BRCC - Saint-Rémi-Desjardins,810 Rue Notre Dame,Saint-Rémi,Quebec,45.26055894,-73.61842149,Circuit électrique,2,0.0,CHADEMO J1772COMBO,Public,24 hours daily,2019-11-02
147386,BRCC - Valleyfield - Desjardins,120 Alexandre,Sallaberry-de-Valleyfield,Quebec,45.2647,-74.1349,Circuit électrique,2,0.0,CHADEMO J1772COMBO,Public,24 hours daily,2019-10-30
213505,4149 Strandherd Dr,4149 Strandherd Dr,Ottawa,Ontario,45.265039,-75.778135,FLO,1,2.0,CHADEMO J1772 J1772COMBO,Public,24 hours daily,2022-04-06
98775,Ste-Marie Automobiles Ltée,540 rue Notre-Dame,St-Rémi,Quebec,45.265182,-73.611371,Non-Networked,1,0.0,CHADEMO,Public,8:30am-9pm M-Th; 8:30am-7pm F; For clients only,2016-04-20
165696,BRCC - Magog - Microbrasserie La Memphré,12 rue Merry Sud,Magog,Quebec,45.266092,-72.155401,Circuit électrique,2,0.0,CHADEMO J1772COMBO,Public,24 hours daily,2020-08-28
210413,Tous les jours,"1366, boul. Monseigneur-Langlois",Valleyfield,Quebec,45.26901774,-74.1311783,Non-Networked,2,0.0,Unknown,PLANNED - not yet accessible (Public),Unknown,
208792,Baseload Power Corp,50 Market Place Avenue,Ottawa,Ontario,45.27005949,-75.74376665,Non-Networked,3,0.0,Unknown,PLANNED - not yet accessible (Public),Unknown,
162973,BORNES DC FAST CHARGER,3399 Boulevard Monseigneur-Langlois,Salaberry-de-Valleyfield,Quebec,45.272667,-74.097042,ChargePoint Network,1,0.0,J1772COMBO,Public,24 hours daily,2020-06-12
158206,IGA,100 rue Théophile-Brassard,Coteau du lac,Quebec,45.273704,-74.194157,Non-Networked,2,0.0,CHADEMO J1772COMBO,Public,24 hours daily,2021-07-20
156757,City of Ottawa-Bob MacQuarrie Recreation Complex,1490 Youville Dr,Orleans,Ontario,45.27593,-75.32377,Non-Networked,1,0.0,CHADEMO J1772COMBO,PLANNED - not yet accessible (Public),Unknown,
130220,BRCC - Carrefour Santé Globale,2381 rue Principale Ouest,Magog,Quebec,45.2810748,-72.18543388,Circuit électrique,1,4.0,CHADEMO J1772 J1772COMBO,Public,24 hours daily,2019-07-17
122250,Carrefour Sante Globale - Tesla Supercharger,2381 Rue Principale Ouest,Magog,Quebec,45.281273,-72.185744,Tesla,8,0.0,TESLA,Public,24 hours daily; for Tesla use only,2019-03-01
130224,BRCC - Ville de Farnham – Caserne de pompiers,"875, rue Principale Ouest",Farnham,Quebec,45.287769,-72.99399,Circuit électrique,1,0.0,CHADEMO J1772COMBO,Public,24 hours daily,2019-07-17
170417,BRCC - Magog - Bureau Touristique,"2911, Chemin Milletta",Magog,Quebec,45.2913711,-72.2133517,Circuit électrique,5,0.0,CHADEMO J1772COMBO,Public,24 hours daily,2020-12-19
191550,BRCC - Coteau-du-Lac - Pavillon Wilson,2A rue Georges-Jules-Beaudet,Coteau-du-Lac,Quebec,45.2935,-74.1746,Circuit électrique,2,0.0,CHADEMO J1772COMBO,Public,24 hours daily,2021-06-26
163003,MYERSVW CPE100 STATION,2500 Palladium Dr,Ottawa,Ontario,45.293911,-75.931998,ChargePoint Network,1,0.0,J1772COMBO,Public,24 hours daily,2020-06-12
166832,BRCC - Eastman - Crevier,25 rue Lapointe,Eastman,Quebec,45.2996,-72.3155,Circuit électrique,2,0.0,CHADEMO J1772COMBO,Public,24 hours daily,2020-09-12
122294,Metro Casselman - Tesla Supercharger,21 Richer Close,Casselman,Ontario,45.30471,-75.081805,Tesla,12,0.0,TESLA,Public,24 hours daily; for Tesla use only,2019-03-01
150484,Petro-Canada EV Fast Charger,1 Horseshoe Lake Rd,Parry Sound,Ontario,45.3065471,-79.8959302,PETROCAN,2,0.0,CHADEMO J1772COMBO,Public,24 hours daily,2019-07-01
130237,DCFC - Casselman,641 Rue Principale,Casselman,Ontario,45.306924,-75.083287,Circuit électrique,1,0.0,CHADEMO J1772COMBO,Public,24 hours daily,2019-07-17
84968,Laplante Chevrolet Buick GMC,632 Principale St,Casselman,Ontario,45.307333,-75.081801,Non-Networked,1,1.0,J1772 J1772COMBO,Public - Call ahead,24 hours daily,2012-07-15
130238,DCFC - Ottawa - Terry Fox Park’N Ride,195 Roland Michener Dr,Kanata,Ontario,45.308005,-75.909408,Circuit électrique,2,2.0,CHADEMO J1772 J1772COMBO,Public,24 hours daily,2019-07-17
130239,BRCC - Ville de St-Jean-sur-Richelieu (Capitol),"267, rue Champlain",St-Jean-sur-Richelieu,Quebec,45.308564,-73.252001,Circuit électrique,1,0.0,CHADEMO J1772COMBO,Public,24 hours daily,2019-07-17
94471,Transit: 40576 Kanata,8111 Campeau Drive,Kanata,Ontario,45.3088,-75.917341,EV Connect,1,0.0,CHADEMO J1772COMBO,Public,Unknown,2017-08-01
149649,BRCC - Beauharnois - Desjardins,"555, rue Ellice",Beauharnois,Quebec,45.314333,-73.877167,Circuit électrique,2,0.0,CHADEMO J1772COMBO,Public,24 hours daily,2019-11-29
200552,Canadian Tire Bells Corners - Tesla Supercharger,2135 Robertson Road,Nepean,Ontario,45.32157,-75.835377,Tesla,8,0.0,TESLA,Public,24 hours daily; for Tesla use only,2021-10-11
158209,IGA,82 boul. De Bromont,Bromont,Quebec,45.322865,-72.645945,ChargePoint Network,2,0.0,CHADEMO J1772COMBO,Public,24 hours daily,2021-07-20
130247,BRCC - Ville de St-Jean-sur-Richelieu (Rona),85 Av Conrad-Gosselin,St-Jean-sur-Richelieu,Quebec,45.324694,-73.248365,Circuit électrique,1,0.0,CHADEMO J1772COMBO,Public,24 hours daily,2019-07-17
205094,BRCC - Saint-Jean-sur-Richelieu -  Quality hotel Centre de congrès,"725, Boulevard du Séminaire Nord",Saint-Jean-sur-Richelieu,Quebec,45.3250496,-73.2670648,Circuit électrique,2,0.0,CHADEMO J1772COMBO,Public,24 hours daily,2022-01-20
158210,Carrefour Richelieu,600 rue Pierre-Caisse,St-Jean-sur-Richelieu,Quebec,45.3295351,-73.2830068,Circuit électrique,8,0.0,CHADEMO J1772COMBO,PLANNED - not yet accessible (Public),Unknown,
145733,Ivy - Huntsville,150 Hanes Rd,Huntsville,Ontario,45.332649,-79.235065,IVY,2,0.0,CHADEMO J1772COMBO,Public - Credit card at all times,24 hours daily; Also accepts in-app payment,2019-09-29
85155,Huntsville Place Mall - Tesla Supercharger,70 King William Street,Huntsville,Ontario,45.333611,-79.206703,Tesla,8,0.0,TESLA,Public,24 hours daily; for Tesla use only,2016-09-15
130250,BRCC - St-Hubert - Bromont,"8, boulevard de Bromont, suite 100",Bromont,Quebec,45.334417,-72.648668,Circuit électrique,7,0.0,CHADEMO J1772COMBO,Public,24 hours daily,2019-07-17
157859,Ontario Charging Network LP,2501 Greenbank Rd,Nepean,Ontario,45.33651,-75.72663,Non-Networked,2,0.0,CHADEMO J1772COMBO,PLANNED - not yet accessible (Public),Unknown,
157860,Ontario Charging Network LP,1820 Merivale Rd,Nepean,Ontario,45.33651,-75.72663,Non-Networked,2,0.0,CHADEMO J1772COMBO,PLANNED - not yet accessible (Public),Unknown,
88676,KRP Properties,400 March Rd,Kanata,Ontario,45.34076,-75.912767,Non-Networked,1,0.0,CHADEMO J1772COMBO,TEMPORARILY UNAVAILABLE (Public),24 hours daily,2017-06-01
201340,Swtch Energy - Trestle Brewing Co,9 Great North Rd,Parry Sound,Ontario,45.3422637,-80.03080552,SWTCH,1,0.0,CHADEMO J1772COMBO,Public - Credit card at all times,24 hours daily,2021-11-09
194203,Parry Sound,30 Pine Dr,Parry Sound,Ontario,45.342328,-80.00667,FLO,2,1.0,CHADEMO J1772 J1772COMBO,Public,24 hours daily,2021-08-24
146571,Petro-Canada Recharge Rapide VÉ / Petro-Canada EV Fast Charger,855 Chemin Saint-Féréol,Les Cèdres,Quebec,45.3434409,-74.0878713,PETROCAN,2,0.0,CHADEMO J1772COMBO,Public,24 hours daily,2019-10-02
158299,Ivy - Parry Sound,121 Bowes St,Parry Sound,Ontario,45.34382728,-80.01101156,IVY,2,0.0,CHADEMO J1772COMBO,Public,24 hours daily; Also accepts in-app payment,2020-02-19
130254,DCFC - Ottawa - Ben Franklin Place,101 Centrepointe Dr,Nepean,Ontario,45.344254,-75.760625,Circuit électrique,1,2.0,CHADEMO J1772 J1772COMBO,Public,24 hours daily,2019-07-17
153069,BRCC - Châteauguay - Desjardins-1,235 Chemin de la Haute-Rivière,Châteauguay,Quebec,45.3447,-73.7544,Circuit électrique,2,0.0,CHADEMO J1772COMBO,Public,24 hours daily,2020-01-25
85207,Parry Sound Inn & Suites - Tesla Supercharger,292 Louisa Street,Parry Sound,Ontario,45.345586,-80.006162,Tesla,8,0.0,TESLA,Public,24 hours daily; for Tesla use only,2016-09-01
167724,BRCC - Châteauguay - Couche-Tard,182 boul. Saint-Joseph,Châteauguay,Quebec,45.3457,-73.7338,Circuit électrique,2,0.0,CHADEMO J1772COMBO,Public,24 hours daily,2020-10-23
83029,IKEA,2685 Iris St,Ottawa,Ontario,45.349861,-75.785074,Non-Networked,2,0.0,CHADEMO J1772COMBO,Public,"7am-10pm M-Sat, 7am-8pm Sun",2017-02-15
158030,Cineplex Cinemas,3090 Carling Ave,Ottawa,Ontario,45.3532828,-75.8045536,Non-Networked,2,0.0,CHADEMO J1772COMBO,PLANNED - not yet accessible (Public),Unknown,
208791,Baseload Power Corp,3090 Carling Avenue,Ottawa,Ontario,45.35342603,-75.80457506,Non-Networked,4,0.0,Unknown,PLANNED - not yet accessible (Public),Unknown,
130262,BRCC - Ange-Gardien - Thai Express,99 Route 235,Ange-Gardien,Quebec,45.3655,-72.9336,Circuit électrique,5,0.0,CHADEMO J1772COMBO,Public,24 hours daily,2019-07-17
201291,Vantage VW,16 Meadow Dr,Truro,Nova Scotia,45.36894012,-63.31699104,ChargePoint Network,2,0.0,J1772COMBO,Public - Credit card at all times,24 hours daily,2021-11-04
154258,BRCC - Rock-Forest – Caisse Desjardins du Nord de Sherbrooke,5001 Boul Bourque,Sherbrooke,Quebec,45.370088,-71.990952,Circuit électrique,2,0.0,CHADEMO J1772COMBO,Public,24 hours daily,2020-03-03
158301,Caisse Desjardins,5001 boul. Bourque,Sherbrooke,Quebec,45.37010451,-71.99094924,Circuit électrique,2,0.0,CHADEMO,Public,24 hours daily,2020-03-01
193587,BRCC - Saint-Philippe - Hôtel-de-Ville,175 chemin Sanguinet,Saint-Philippe,Quebec,45.372,-73.4901,Circuit électrique,2,0.0,CHADEMO J1772COMBO,Public,24 hours daily,2021-08-07
130269,BRCC - Université de Sherbrooke,2500 Boul de l'Université,Sherbrooke,Quebec,45.378317,-71.928373,Circuit électrique,1,0.0,CHADEMO J1772COMBO,Public,24 hours daily,2019-07-17
210405,Tous les jours,249 Boulevard Harwood,Vaudreuil-Dorion,Quebec,45.3830907,-74.01542839,Non-Networked,2,0.0,Unknown,PLANNED - not yet accessible (Public),Unknown,
149902,BRCC - Granby - COOP Fédérée,134 rue Robitaille,Granby,Quebec,45.3866,-72.7024,Circuit électrique,2,0.0,CHADEMO J1772COMBO,Public,24 hours daily,2019-12-11
210552,Videotron LTÉE,2830 Rue Galt Ouest,Sherbrooke,Quebec,45.386731,-71.943339,Non-Networked,16,0.0,Unknown,PLANNED - not yet accessible (Private),Unknown,
201269,IGA extra Sherbrooke,3950 Rue King O,Sherbrooke,Quebec,45.3885991,-71.95810512,ChargePoint Network,2,0.0,CHADEMO J1772COMBO,Public - Credit card at all times,24 hours daily,2021-11-04
169416,BRCC - Sainte-Catherine-des-Écluses - Burger King-1,"1580, Boulevard des Écluses",Sainte-Catherine,Quebec,45.3889727,-73.5572954,Circuit électrique,2,0.0,CHADEMO J1772COMBO,Public,24 hours daily,2020-11-21
88231,TBD,88 Marr Rd,Rothesay,New Brunswick,45.389489,-65.968996,Non-Networked,1,0.0,CHADEMO,PLANNED - not yet accessible (Public),24 hours daily,
188985,BRCC - Saint-Constant - Couche-Tard,3 boulevard Monchamp,Saint-Constant,Quebec,45.3922,-73.5819,Circuit électrique,2,0.0,CHADEMO J1772COMBO,Public,24 hours daily,2021-04-30
196077,BRCC - Granby - Couche-Tard,554 Rue Denison Est,Granby,Quebec,45.3929,-72.6823,Circuit électrique,2,0.0,CHADEMO J1772COMBO,Public,24 hours daily,2021-09-18
129645,Masstown Petro Canada,10653 Nova Scotia Trunk 2,Masstown,Nova Scotia,45.3935,-63.4952,FLO,1,1.0,CHADEMO J1772 J1772COMBO,Public,24 hours daily,2019-07-17
210550,Videotron LTÉE,611 rue Cowie,Granby,Quebec,45.394473,-72.745866,Non-Networked,7,0.0,Unknown,PLANNED - not yet accessible (Private),Unknown,
166929,BRCC - Sherbrooke - Shell,4776 Boulevard Industriel,Sherbrooke,Quebec,45.394742,-71.983494,Circuit électrique,2,0.0,CHADEMO J1772COMBO,Public,24 hours daily,2020-09-18
130288,BRCC - Granby - Bureau d'accueil touristique,"111, rue Denison E",Granby,Quebec,45.395589,-72.712862,Circuit électrique,1,1.0,CHADEMO J1772 J1772COMBO,Public,24 hours daily,2019-07-17
185192,BRCC - Aylmer - St-Hubert,"181, Rue Principale",Gatineau,Quebec,45.3964027,-75.8366533,Circuit électrique,2,0.0,CHADEMO J1772COMBO,Public,24 hours daily,2021-02-19
168361,BRCC - Candiac - Couche-Tard,85 boul. Taschereau,Candiac,Quebec,45.399509,-73.505585,Circuit électrique,2,0.0,CHADEMO J1772COMBO,Public,24 hours daily,2020-11-13
130297,BRCC - Carrefour de l'Estrie,3050 boul. de Portland,Sherbrooke,Quebec,45.401666,-71.949294,Circuit électrique,1,0.0,CHADEMO J1772COMBO,Public,24 hours daily,2019-07-17
189806,Groupe Harnois - Proxi Vaudreuil,524 avenue St-Charles,Vaudreuil-Dorion,Quebec,45.40555,-74.032909,FLO,1,1.0,CHADEMO J1772 J1772COMBO,Public,24 hours daily,2021-05-19
130304,601 avenue Saint-Charles,601 avenue Saint-Charles,Vaudreuil-Dorion,Quebec,45.407745,-74.034517,Circuit électrique,1,1.0,CHADEMO J1772 J1772COMBO,Public,24 hours daily,2019-07-17
191685,BRCC - La Prairie - Parc Lucie-F.-Roussel,1300 Chemin de Saint-Jean,La Prairie,Quebec,45.409821,-73.474945,Circuit électrique,3,0.0,CHADEMO J1772COMBO,Public,24 hours daily,2021-07-01
130312,DCFC - Ottawa - Chinatown,687 Somerset Street West,Ottawa,Ontario,45.41143,-75.70647,Circuit électrique,1,0.0,CHADEMO J1772COMBO,Public,24 hours daily,2019-07-17
222896,BRCC - Richelieu-Burger King-1,2360 Chemin des Patriotes,Richelieu,Quebec,45.4119,-73.2407,Circuit électrique,2,0.0,CHADEMO J1772COMBO,Public,24 hours daily,2022-07-08
210403,Tous les jours,35 Rue Principale E,Cookshire,Quebec,45.41311981,-71.62883866,Non-Networked,2,0.0,Unknown,PLANNED - not yet accessible (Public),Unknown,
163010,29 CITE CPE100,29 Boulevard,Vaudreuil-Dorion,Quebec,45.413179,-74.028376,ChargePoint Network,1,0.0,J1772COMBO,Public,24 hours daily,2020-06-12
157862,Home Depot,1616 Cyrville Rd,Gloucester,Ontario,45.41705,-75.60986,Non-Networked,2,0.0,CHADEMO J1772COMBO,PLANNED - not yet accessible (Public),Unknown,
145732,NBP - IOL Quispamsis,10 Millennium Drive,Quispamsis,New Brunswick,45.417366,-65.944417,eCharge Network,1,1.0,CHADEMO J1772 J1772COMBO,Public,24 hours daily,2019-09-01
153455,Irving Oil - Tesla Supercharger,8 Millennium Drive,Quispamsis,New Brunswick,45.417459,-65.94386,Tesla,8,0.0,TESLA,Public,24 hours daily; for Tesla use only,2020-01-31
163057,BYTEK VW CPE100,1325-1337 Ottawa Regional Rd 26,Ottawa,Ontario,45.418381,-75.633603,ChargePoint Network,1,0.0,J1772COMBO,TEMPORARILY UNAVAILABLE (Public),24 hours daily,2020-06-12
168209,Ottawa East,330 Coventry Road,Ottawa,Ontario,45.42054,-75.6517,Electrify Canada,4,0.0,CHADEMO J1772COMBO,Public,24 hours daily,2020-11-07
222132,Elite BMW,1040 Ogilvie Road,Ottawa,Ontario,45.42409397,-75.63529326,FLO,1,0.0,CHADEMO J1772COMBO,Public,24 hours daily,2022-06-29
197804,Arnprior,245 Daniel St S,Arnprior,Ontario,45.42608075,-76.36664237,FLO,1,1.0,CHADEMO J1772 J1772COMBO,Public,24 hours daily,2021-10-15
129661,FLO - Cadillac Fairview - Rideau Center,50 Rideau St.,Ottawa,Ontario,45.426082,-75.690165,FLO,1,2.0,CHADEMO J1772 J1772COMBO,Public,24 hours daily,2019-07-17
122255,CF Rideau Centre - Tesla Supercharger,50 Rideau Suite #300,Ottawa,Ontario,45.426387,-75.690794,Tesla,8,0.0,TESLA,Public,24 hours daily; for Tesla use only,2019-03-01
130327,BRCC - Maison du citoyen,25 rue Laurier,Gatineau,Quebec,45.427717,-75.71149,Circuit électrique,1,0.0,CHADEMO J1772COMBO,Public,24 hours daily,2019-07-17
130330,DCFC - Ottawa - 141 Clarence St,141 Clarence St,Ottawa,Ontario,45.429826,-75.691315,Circuit électrique,1,1.0,CHADEMO J1772 J1772COMBO,Public,24 hours daily,2019-07-17
158225,IGA,221-247 boul. des Grives,Gatineau,Quebec,45.4332574,-75.7812089,Circuit électrique,4,0.0,CHADEMO J1772COMBO,PLANNED - not yet accessible (Public),24 hours daily,
200531,Quartier Santé - Tesla Supercharger,2015 12e Avenue North,Sherbrooke,Quebec,45.43372,-71.869628,Tesla,8,0.0,TESLA,Public,24 hours daily; for Tesla use only,2021-10-11
170040,BRCC - Sherbrooke - Quartier Santé,2015 12e avenue Nord,Sherbrooke,Quebec,45.433734,-71.869846,Circuit électrique,6,0.0,CHADEMO J1772COMBO,Public,24 hours daily,2020-12-10
87664,Scotiabank,169 John St N,Arnprior,Ontario,45.434577,-76.352803,Non-Networked,1,0.0,CHADEMO J1772COMBO,Public,24 hours daily,2017-06-01
200697,BRCC - Lachine - Stationnement coin Victoria/25e Avenue,2425 rue Victoria,Lachine,Quebec,45.4356,-73.6861,Circuit électrique,4,0.0,CHADEMO J1772COMBO,Public,24 hours daily,2021-11-06
149612,BRCC - Lasalle - Rôtisserie St-Hubert,7979 Newman,Lasalle,Quebec,45.43581,-73.626984,Circuit électrique,2,0.0,CHADEMO J1772COMBO,Public,24 hours daily,2019-11-27
205674,Ottawa Gloucester,2010 Ogilvie Road,Gloucester,Ontario,45.435847,-75.605202,FLO,2,1.0,CHADEMO J1772 J1772COMBO,Public,24 hours daily,2022-02-01
201271,IGA extra Supermarché Picard inc.,9105 C Bd Taschereau,Brossard,Quebec,45.436884,-73.472993,ChargePoint Network,2,0.0,CHADEMO J1772COMBO,Public - Credit card at all times,24 hours daily,2021-11-04
147486,BRCC - Marieville-Crevier,"175, Rue Claude-De Ramezay",Marieville,Quebec,45.4373582,-73.164621,Circuit électrique,2,0.0,CHADEMO J1772COMBO,Public,24 hours daily,2019-11-02
210410,Tous les jours,"490, 28ième avenue",Lachine,Quebec,45.43761581,-73.68715473,Non-Networked,2,0.0,Unknown,PLANNED - not yet accessible (Public),Unknown,
122301,Quartier DIX30 - Tesla Supercharger,6000 Boulevard Rome,Brossard,Quebec,45.442023,-73.440894,Tesla,12,0.0,TESLA,Public,24 hours daily; for Tesla use only,2019-03-01
201278,Léo Harley-Davidson,8705 Blvd Taschereau,Brossard,Quebec,45.44220985,-73.47214753,ChargePoint Network,1,0.0,J1772COMBO,Public - Credit card at all times,24 hours daily,2021-11-04
147517,BRCC - Brossard - Dix30,9550 Boulevard Leduc,Brossard,Quebec,45.443137,-73.436175,Circuit électrique,2,0.0,CHADEMO J1772COMBO,Public,24 hours daily,2019-11-05
130350,BRCC - Quartier Dix30,"9120, boul. Leduc",Brossard,Quebec,45.44598,-73.437003,Circuit électrique,2,0.0,CHADEMO J1772COMBO,Public,24 hours daily,2019-07-17
149529,BRCC - Kirkland - Rôtisseries St-Hubert,2939 boul. St-Charles,Kirkland,Quebec,45.447444,-73.853361,Circuit électrique,4,0.0,CHADEMO J1772COMBO,Public,24 hours daily,2019-11-26
167717,BRCC - Chambly - Couche-Tard,875 Boulevard de Périgny,Chambly,Quebec,45.454458,-73.301425,Circuit électrique,2,0.0,CHADEMO J1772COMBO,Public,24 hours daily,2020-10-23
213852,BRCC - Montréal Monk,6071 rue Monk,Montréal,Quebec,45.4576,-73.5952,Circuit électrique,4,0.0,CHADEMO J1772COMBO,Public,24 hours daily,2022-04-12
157863,Home Depot,2121 10th Line,Orleans,Ontario,45.46005,-75.48358,Non-Networked,2,0.0,CHADEMO J1772COMBO,PLANNED - not yet accessible (Public),Unknown,
158494,Hydro-Québec,955 rue Jacques-de- Lesseps,Montreal,Quebec,45.4614682,-73.73100626,Non-Networked,2,0.0,CHADEMO J1772COMBO,PLANNED - not yet accessible (Public),Unknown,
167413,BRCC - Oka - Caisse Desjardins du Lac des Deux-Montagnes,"100, Rue Notre Dame",Oka,Quebec,45.462264,-74.08513,Circuit électrique,2,0.0,CHADEMO J1772COMBO,Public,24 hours daily,2020-10-09
158186,Aréna Denis-Savard,4110 boul. Lasalle,Montreal,Quebec,45.4623693,-73.5652186,Non-Networked,2,0.0,CHADEMO J1772COMBO,PLANNED - not yet accessible (Public),Unknown,
129674,FLO - Cadillac Fairview - Fairview Pointe Claire,6801 Autoroute Transcanadienne,Pointe-Claire,Quebec,45.462572,-73.830565,FLO,1,2.0,CHADEMO J1772 J1772COMBO,Public,24 hours daily,2019-07-17
122252,CF Fairview Pointe-Claire - Tesla Supercharger,6801 Trans-Canada Highway,Pointe-Claire,Quebec,45.464201,-73.8281,Tesla,20,0.0,TESLA,Public,24 hours daily; for Tesla use only,2019-03-01
83026,Surgenor Gatineau Chevrolet Cadillac,950 boul. Saint-Joseph,Gatineau,Quebec,45.466558,-75.737677,Non-Networked,1,7.0,J1772,Public,24 hours daily,2016-04-13
158183,Hydro-Québec,1007 boul. René-Lévesque,Montreal,Quebec,45.467192,-73.5366477,Non-Networked,2,0.0,CHADEMO J1772COMBO,PLANNED - not yet accessible (Public),Unknown,
213796,BRCC - Brossard - Couche-Tard,5699 Grande Allée,Brossard,Quebec,45.4723,-73.4418,Circuit électrique,1,0.0,CHADEMO J1772COMBO,Public,24 hours daily,2022-04-10
130407,6325 boul. Taschereau,6325 boul. Taschereau,Brossard,Quebec,45.473273,-73.466452,Circuit électrique,2,1.0,CHADEMO J1772 J1772COMBO,Public,24 hours daily,2019-07-17
210401,Tous les jours,"150, Angus Sud (Suite 10)",East Angus,Quebec,45.47539977,-71.66773004,Non-Networked,2,0.0,Unknown,PLANNED - not yet accessible (Public),Unknown,
169658,ChargeLab - Boul. Cousineau,8175 boul. Cousineau,Saint-Hubert,Quebec,45.4759463,-73.379024,CHARGELAB,1,0.0,CHADEMO J1772COMBO,Public - Credit card at all times,24 hours daily,2020-02-26
130410,1100 boulevard Maloney Ouest,1100 boulevard Maloney Ouest,Gatineau,Quebec,45.476168,-75.696797,Circuit électrique,4,4.0,CHADEMO J1772 J1772COMBO,Public,24 hours daily,2019-07-17
193215,BRCC - MTQ - Aire de service de Rigaud,420 Chem. J.-René-Gauthier,Rigaud,Quebec,45.476593,-74.28443,Circuit électrique,2,1.0,CHADEMO J1772 J1772COMBO,Public,24 hours daily,2021-07-27
158185,IGA,3964 Rue Notre-Dame Ouest,Montreal,Quebec,45.477993,-73.583575,ChargePoint Network,2,0.0,CHADEMO J1772COMBO,Public,24 hours daily,2021-11-15
208801,Tous les jours,"3964-3966, rue Notre-Dame O",Montréal,Quebec,45.477993,-73.583575,Non-Networked,2,0.0,Unknown,PLANNED - not yet accessible (Public),Unknown,
130424,BRCC - Marché Atwater,"138, Avenue Atwater",Montréal,Quebec,45.478722,-73.57675,Circuit électrique,2,0.0,CHADEMO J1772COMBO,Public,24 hours daily,2019-07-17
201660,Renfrew,1050 O'Brien Rd,Renfrew,Ontario,45.48065,-76.64901,FLO,2,1.0,CHADEMO J1772 J1772COMBO,Public,24 hours daily,2021-11-27
188973,BRCC - Dorval - Centre météorologique canadien,2121 Voie de Service Nord,Dorval,Quebec,45.483042,-73.788285,Circuit électrique,3,0.0,CHADEMO J1772COMBO,Public,24 hours daily,2021-04-30
130446,"46, rue de l'hôtel-de-Ville","46, rue de l'hôtel-de-Ville",East Angus,Quebec,45.484683,-71.658148,Circuit électrique,2,1.0,CHADEMO J1772 J1772COMBO,Public,24 hours daily,2019-07-17
158188,Hydro-Québec,8300 Trans-Canadienne,Montreal,Quebec,45.4889927,-73.7272296,Non-Networked,2,0.0,CHADEMO J1772COMBO,PLANNED - not yet accessible (Public),Unknown,
155359,Petro-Canada Recharge Rapide VÉ / Petro-Canada EV Fast Charger,395 Montée Paiement,Gatineau,Quebec,45.490147,-75.675979,PETROCAN,2,0.0,CHADEMO J1772COMBO,Public,24 hours daily,2020-03-01
149425,BRCC - Valcourt - Desjardins,1120 Avenue des Cascades,Valcourt,Quebec,45.493155,-72.3137,Circuit électrique,2,0.0,CHADEMO J1772COMBO,Public,24 hours daily,2019-11-22
205423,BRCC - Greenfield Park - Couche-Tard,3351 Boulevard Taschereau,Greenfield Park,Quebec,45.4934,-73.4783,Circuit électrique,1,0.0,CHADEMO J1772COMBO,Public,24 hours daily,2022-01-27
158214,St. Hubert,5900 boul. Cousineau,St-Hubert,Quebec,45.4967041,-73.4134198,Circuit électrique,8,0.0,CHADEMO J1772COMBO,PLANNED - not yet accessible (Public),Unknown,
165701,BRCC - Montréal - Côte-des-Neiges - Couche-Tard,"5405, Chemin de la Côte-des-Neiges",Montréal,Quebec,45.497335,-73.623646,Circuit électrique,1,0.0,CHADEMO J1772COMBO,Public,24 hours daily,2020-08-28
158496,Hydro-Québec,975 975 St Jacques St,Montreal,Quebec,45.4975009,-73.5647931,Non-Networked,2,0.0,CHADEMO J1772COMBO,PLANNED - not yet accessible (Public),Unknown,
145011,BRCC - Longueuil-Montcalm,2088 Rue Montcalm,Longueuil,Quebec,45.500123,-73.486663,Circuit électrique,2,2.0,CHADEMO J1772 J1772COMBO,Public,24 hours daily,2019-09-06
122299,Place Vertu Shopping Centre - Tesla Supercharger,3131 Cote Vertu Boulevard,Saint-Laurent,Quebec,45.500429,-73.707966,Tesla,12,0.0,TESLA,Public,24 hours daily; for Tesla use only,2019-03-01
180465,BMW CANBEC FAST CHARGER,4090 Rue Jean-Talon O,Montréal,Quebec,45.50069,-73.64562,ChargePoint Network,1,0.0,J1772COMBO,TEMPORARILY UNAVAILABLE (Public),24 hours daily,2021-01-27
192951,BRCC - Saint-Hubert - Uniprix,5125 boul. Cousineau,St-Hubert,Quebec,45.5023,-73.4275,Circuit électrique,2,0.0,CHADEMO J1772COMBO,Public,24 hours daily,2021-07-17
129707,FLO - Cadillac Fairview - Promenades St-Bruno,1 boul. Des Promenades,St-Bruno-de-Montarville,Quebec,45.504393,-73.379501,FLO,1,2.0,CHADEMO J1772 J1772COMBO,Public,24 hours daily,2019-07-17
210399,Tous les jours,"1248, Boul. De la Vérendrye E",Gatineau,Quebec,45.50624138,-75.61190433,Non-Networked,2,0.0,Unknown,PLANNED - not yet accessible (Public),Unknown,
143897,BRCC - Complexe Desjardins,1255 rue Jeanne-Mance,Montréal,Quebec,45.507,-73.5654,Circuit électrique,4,0.0,CHADEMO J1772COMBO,Public,24 hours daily,2019-08-20
220405,BRCC - Saint-Lambert - Stationnement Riverside,"500, Rue Riverside",Saint-Lambert,Quebec,45.5073047,-73.5185676,Circuit électrique,2,0.0,CHADEMO J1772COMBO,Public,24 hours daily,2022-06-01
207567,Public Parking Lotaid - Tesla Supercharger,985 Boul. Saint-Laurent,Montréal,Quebec,45.507767,-73.558811,Tesla,8,0.0,TESLA,Public - Credit card at all times,24 hours daily,2022-02-25
165702,BRCC - St-Laurent-Stationnement Ouimet Nord-1 et 2,812 A Ouimet,Montréal,Quebec,45.5122,-73.6784,Circuit électrique,2,0.0,CHADEMO J1772COMBO,Public,24 hours daily,2020-08-28
130555,BRCC - Longueuil 2,"4200, chemin de la Savane",Longueuil,Quebec,45.513028,-73.431583,Circuit électrique,1,0.0,CHADEMO J1772COMBO,Public,24 hours daily,2019-07-17
